Station Name,ID,Lat.,Lon.,GLOSS ID,Country,Date,Coastline,Station
BREST,1,48.383,-4.495,242,FRA,30/01/2024,190,091
SWINOUJSCIE,2,53.917,14.233,,POL,19/10/2001,110,092
SHEERNESS,3,51.446,0.743,,GBR,02/02/2024,170,101
HOLYHEAD,5,53.314,-4.620,,GBR,02/02/2024,170,191
CUXHAVEN 2,7,53.867,8.717,284,DEU,13/12/2023,140,012
WISMAR 2,8,53.899,11.458,,DEU,14/04/2023,120,022
MAASSLUIS,9,51.918,4.250,,NLD,19/07/2023,150,061
SAN FRANCISCO,10,37.807,-122.465,158,USA,10/01/2024,823,031
WARNEMUNDE 2,11,54.170,12.103,,DEU,14/04/2023,120,012
NEW YORK (THE BATTERY),12,40.700,-74.013,,USA,10/01/2024,960,121
TRAVEMUNDE,13,53.958,10.872,,DEU,07/04/2022,125,001
HELSINKI,14,60.154,24.956,,FIN,05/03/2024,060,351
LIVERPOOL GEORGES AND PRINCES PIERS,15,53.400,-3.000,,GBR,27/01/2016,170,211
LYOKKI,16,60.850,21.183,,FIN,01/01/1980,060,221
LYPYRTTI,17,60.600,21.233,,FIN,01/01/1980,060,231
JUNGFRUSUND,18,59.950,22.367,,FIN,01/01/1980,060,311
VLISSINGEN,20,51.442,3.596,,NLD,19/07/2023,150,101
ABERDEEN II,21,57.150,-2.083,,GBR,01/01/1980,170,012
HOEK VAN HOLLAND,22,51.978,4.120,,NLD,19/07/2023,150,051
DEN HELDER,23,52.964,4.745,,NLD,19/07/2023,150,031
DELFZIJL,24,53.326,6.933,,NLD,19/07/2023,150,001
HARLINGEN,25,53.176,5.409,,NLD,19/07/2023,150,021
LIEPAJA,26,56.533,20.983,,LVA,30/03/2016,083,151
UTO,27,59.783,21.367,,FIN,01/01/1980,060,291
RUSSARO,28,59.767,22.950,,FIN,01/01/1980,060,316
SODERSKAR,29,60.117,25.417,,FIN,01/01/1980,060,354
RONNSKAR,30,63.067,20.800,,FIN,01/01/1980,060,061
NEDRE SODERTALJE,31,59.200,17.617,,SWE,06/11/1991,050,131
IJMUIDEN,32,52.462,4.555,,NLD,19/07/2023,150,041
OSCARSBORG,33,59.678,10.605,,NOR,18/01/2024,040,331
TRONDHEIM,34,63.433,10.433,,NOR,30/09/1991,040,141
DAUGAVGRIVA,37,57.050,24.033,,LVA,01/01/1980,083,081
VENEZIA (S.STEFANO),39,45.417,12.333,,ITA,11/04/2000,270,051
POTI,41,42.167,41.683,,GEO,24/08/2023,305,021
SEVASTOPOL,42,44.617,33.533,,UKR,03/02/1998,298,041
MUMBAI / BOMBAY (APOLLO BANDAR),43,18.917,72.833,,IND,13/02/2023,500,041
ADEN,44,12.788,44.974,3,YEM,01/02/2016,485,001
KABELVAG,45,68.213,14.482,,NOR,18/01/2024,040,091
STAVANGER,47,58.974,5.730,,NOR,18/01/2024,040,261
KIDDERPORE,48,22.533,88.333,,IND,01/01/1980,500,151
DUBLAT (SAUGOR IS.),49,21.633,88.133,,IND,01/01/1980,500,121
BATUMI,51,41.633,41.700,,GEO,24/08/2023,305,031
CASCAIS,52,38.683,-9.417,246,PRT,27/01/2016,210,021
VAASA / VASA,57,63.082,21.571,,FIN,25/05/2023,060,051
BERGEN,58,60.398,5.320,,NOR,18/01/2024,040,221
GENOVA,59,44.400,8.900,,ITA,20/01/2023,250,011
MARSEILLE,61,43.279,5.354,205,FRA,30/01/2024,230,051
OSLO,62,59.909,10.735,,NOR,18/01/2024,040,321
KOBBAKLINTAR,63,60.033,19.883,,ALA,01/01/1980,060,261
GDANSK/NOWY PORT,64,54.400,18.683,,POL,19/10/2001,110,022
"SYDNEY, FORT DENISON",65,-33.850,151.233,57,AUS,10/05/2000,680,141
MILFORD HAVEN (NEWTON NOYES),66,51.700,-5.017,,GBR,20/02/1987,170,181
LANDSORT,68,58.742,17.865,,SWE,10/09/2019,050,121
OLANDS NORRA UDDE,69,57.366,17.097,,SWE,09/06/2023,050,091
KUNGSHOLMSFORT,70,56.105,15.589,,SWE,09/06/2023,050,081
HANKO / HANGO,71,59.823,22.977,,FIN,05/03/2024,060,331
YSTAD,72,55.417,13.817,,SWE,29/07/1988,050,071
VARBERG,73,57.100,12.217,,SWE,01/01/1980,050,041
GOTEBORG - KLIPPAN,74,57.683,11.900,,SWE,01/03/2012,050,031
AARHUS,76,56.147,10.224,,DNK,27/11/2018,130,081
GRONSKAR,77,59.283,19.033,,SWE,06/11/1991,050,151
STOCKHOLM,78,59.324,18.082,341,SWE,09/06/2023,050,141
OULU / ULEABORG,79,65.040,25.418,,FIN,05/03/2024,060,011
ESBJERG,80,55.461,8.441,,DNK,27/11/2018,130,121
FREDERICIA,81,55.561,9.754,,DNK,27/11/2018,130,071
KOBENHAVN,82,55.705,12.600,,DNK,27/11/2018,130,021
VYBORG,83,60.700,28.733,,RUS,01/01/1980,080,002
LEMSTROM,84,60.100,20.017,,ALA,01/01/1980,060,271
REPOSAARI,85,61.617,21.450,,FIN,01/01/1980,060,091
YKSPIHLAJA,86,63.833,23.033,,FIN,01/01/1980,060,031
VENEZIA (ARSENALE),87,45.417,12.350,,ITA,01/01/1980,270,041
RATAN,88,63.986,20.895,,SWE,09/06/2023,050,191
HIRTSHALS,89,57.596,9.964,,DNK,27/11/2018,130,101
BJORN,90,60.633,17.967,,SWE,01/01/1980,050,161
FREDERIKSHAVN,91,57.436,10.549,,DNK,27/11/2018,130,091
TONOURA,94,34.900,132.067,326,JPN,04/05/1988,647,021
NORTH SHIELDS,95,55.007,-1.440,,GBR,02/02/2024,170,053
HALIFAX,96,44.667,-63.583,222,CAN,29/06/2017,970,011
BACKEVIK,97,58.367,11.250,,SWE,01/01/1980,050,021
SLIPSHAVN,98,55.288,10.828,,DNK,27/11/2018,130,051
NEDRE GAVLE,99,60.683,17.167,,SWE,06/11/1991,050,171
PORTO CORSINI,100,44.500,12.283,,ITA,01/01/1980,270,035
ANCONA,101,43.583,13.483,,ITA,01/01/1980,270,030
CATANIA,102,37.500,15.133,,ITA,01/01/1980,260,031
TARANTO,103,40.433,17.267,,ITA,01/01/1980,270,006
CAGLIARI,104,39.200,9.167,,ITA,01/01/1980,240,011
NAPOLI (MANDRACCHIO),105,40.843,14.258,,ITA,04/06/2019,250,051
CIVITAVECCHIA,106,42.050,11.817,,ITA,01/01/1980,250,031
PALERMO,107,38.133,13.333,,ITA,01/01/1980,260,011
PORTO MAURIZIO,108,43.867,8.017,,ITA,01/01/1980,250,001
LA MADDALENA,109,41.233,9.367,,ITA,01/01/1980,240,001
FREMANTLE,111,-32.056,115.739,53,AUS,27/02/2023,680,471
FERNANDINA BEACH,112,30.672,-81.465,,USA,10/01/2024,960,021
KORSOR,113,55.332,11.142,,DNK,27/11/2018,130,041
KLAIPEDA,118,55.700,21.133,,LTU,23/07/2019,084,161
HORNBAEK,119,56.091,12.458,,DNK,27/11/2018,130,031
GEDSER,120,54.573,11.926,,DNK,27/11/2018,130,001
IWASAKI,121,40.583,139.917,,JPN,01/01/1980,647,101
DRAGHALLAN,122,62.367,17.533,,SWE,01/01/1980,050,181
TROIS-RIVIERES,126,46.333,-72.550,,CAN,16/02/2024,970,078
SEATTLE,127,47.602,-122.338,,USA,16/01/2024,823,011
NAPOLI (ARSENALE),129,40.867,14.267,,ITA,01/01/1980,250,041
ABURATSUBO,130,35.160,139.615,,JPN,04/03/2024,642,091
AYUKAWA,131,38.297,141.505,,JPN,04/03/2024,642,031
WAJIMA,132,37.406,136.900,,JPN,04/03/2024,647,071
HOSOJIMA,133,32.429,131.669,,JPN,04/03/2024,645,011
KUSHIMOTO,134,33.476,135.773,85,JPN,04/03/2024,642,141
PHILADELPHIA (PIER 9N),135,39.933,-75.142,,USA,10/01/2024,960,087
PORT-SAINT-FRANCOIS,137,46.267,-72.617,,CAN,16/02/2024,970,076
POINTE-AU-PERE,138,48.517,-68.467,,CAN,25/10/1993,970,061
HANASAKI,139,43.283,145.583,,JPN,01/01/1980,641,011
STROMSTAD,140,58.950,11.183,,SWE,06/11/1991,050,001
SKURU,142,60.100,23.550,,FIN,13/09/1988,060,344
BATISCAN,144,46.500,-72.250,,CAN,16/02/2024,970,082
"MANILA, S. HARBOR",145,14.583,120.967,73,PHL,13/06/2023,660,011
HEL,146,54.600,18.800,,POL,30/03/2016,110,042
BALTIMORE,148,39.267,-76.578,,USA,10/01/2024,960,081
AUCKLAND II,150,-36.843,174.769,127,NZL,09/06/2003,690,002
TRIESTE,154,45.647,13.758,340,ITA,25/01/2022,270,061
HONOLULU,155,21.307,-157.867,108,USA,26/01/2024,760,031
BUENOS AIRES,157,-34.600,-58.367,,ARG,14/05/1991,860,151
SAN DIEGO (QUARANTINE STATION),158,32.713,-117.173,,USA,16/01/2024,823,081
OSHORO I,159,43.217,140.867,,JPN,01/01/1980,641,041
"GALVESTON II, PIER 21, TX",161,29.310,-94.793,217,USA,10/01/2024,940,008
LAGOS,162,37.100,-8.667,,PRT,27/01/2016,210,031
BALBOA,163,8.967,-79.567,168,PAN,08/07/2021,840,011
KOTKA,164,60.450,26.950,,FIN,01/01/1980,060,358
TOFINO,165,49.150,-125.917,156,CAN,16/02/2024,822,116
VICTORIA,166,48.417,-123.367,,CAN,16/02/2024,822,101
PRINCE RUPERT,167,54.317,-130.333,155,CAN,07/02/2023,822,001
VENEZIA (PUNTA DELLA SALUTE),168,45.433,12.333,,ITA,27/01/2016,270,054
CRISTOBAL,169,9.350,-79.917,208,PAN,16/01/2012,904,011
NEDRE NYKOPING,170,58.750,17.017,,SWE,01/01/1980,050,111
MANTYLUOTO,172,61.594,21.463,,FIN,05/03/2024,060,101
QUEBEC (LAUZON),173,46.833,-71.167,,CAN,07/05/2013,970,071
KO LAK,174,11.800,99.817,39,THA,15/09/2023,600,021
VANCOUVER,175,49.283,-123.117,,CAN,16/02/2024,822,071
HARRINGTON HBR,176,50.500,-59.483,,CAN,25/10/1993,970,101
SMOGEN,179,58.354,11.218,,SWE,13/06/2023,050,011
ATLANTIC CITY,180,39.355,-74.418,220,USA,16/01/2024,960,091
COMODORO RIVADAVIA,181,-45.867,-67.483,,ARG,01/01/1980,860,021
PORTLAND  (MAINE),183,43.657,-70.247,,USA,26/01/2024,960,181
PUERTO DESEADO,185,-47.750,-65.917,190,ARG,08/02/2023,860,011
KEY WEST,188,24.555,-81.807,216,USA,10/01/2024,940,071
PORT HEDLAND,189,-20.318,118.574,51,AUS,01/02/2024,680,494
DUNBAR,190,56.006,-2.517,,GBR,01/01/1980,170,041
NEUVILLE,192,46.700,-71.567,,CAN,16/02/2024,970,089
POINT ATKINSON,193,49.333,-123.250,,CAN,16/02/2024,822,051
PIETARSAARI  /  JAKOBSTAD,194,63.709,22.690,,FIN,05/03/2024,060,041
"SAINT JOHN, N.B.",195,45.267,-66.067,,CAN,16/02/2024,970,001
"SYDNEY, FORT DENISON 2",196,-33.855,151.226,57,AUS,01/02/2024,680,140
CEDAR KEY I,199,29.133,-83.033,,USA,01/01/1980,940,051
DESCHAILLONS,201,46.567,-72.100,,CAN,16/02/2024,970,074
NEWLYN,202,50.103,-5.543,241,GBR,02/02/2024,170,161
FURUOGRUND,203,64.916,21.231,,SWE,09/06/2023,050,201
KARACHI,204,24.812,66.975,30,PAK,30/11/2017,490,021
CHENNAI,205,13.100,80.300,34,IND,27/04/2023,500,091
PORT BLAIR,206,11.683,92.767,38,IND,31/08/2022,540,001
"PUERTO PRINCESA, PALAWAN",207,9.750,118.733,,PHL,26/10/2021,660,111
ALICANTE 1,208,38.338,-0.478,,ESP,09/06/2021,220,051
CADIZ II,209,36.528,-6.311,,ESP,26/06/2013,220,002
RANGOON,210,16.767,96.167,,MMR,01/01/1980,530,011
BOMBAY (PRINCES DOCK),212,18.950,72.833,,IND,01/01/1980,500,051
BLUFF (SOUTHLAND HARBOUR),213,-46.598,168.345,129,NZL,18/09/2023,690,041
FELIXSTOWE,214,51.958,1.347,,GBR,14/05/2012,170,071
TUAPSE,215,44.100,39.067,98,RUS,28/06/2023,300,001
PORT PIRIE,216,-33.178,138.012,,AUS,01/02/2024,680,391
AUCKLAND-WAITEMATA HARBOUR,217,-36.843,174.769,127,NZL,27/08/1999,690,001
BELFAST 2,219,54.600,-5.917,,GBR,31/05/1989,170,272
WELLINGTON HARBOUR,221,-41.284,174.780,101,NZL,18/09/2023,690,011
QUEQUEN,223,-38.583,-58.700,,ARG,05/04/1990,860,081
LEWES (BREAKWATER HARBOR),224,38.782,-75.120,,USA,10/01/2024,960,085
KETCHIKAN,225,55.332,-131.625,,USA,10/01/2024,821,051
SAPPI,226,61.483,21.333,,FIN,01/01/1980,060,111
SUR SARI,227,60.083,26.983,,RUS,01/01/1980,080,001
SALGRUND,228,62.333,21.200,,FIN,01/01/1980,060,081
KEMI,229,65.673,24.515,,FIN,05/03/2024,060,001
PORT LINCOLN,230,-34.716,135.870,,AUS,01/02/2024,680,431
HELIGMAN,231,60.200,19.300,,ALA,01/01/1980,060,251
LOHM,233,60.100,21.667,,FIN,01/01/1980,060,301
CHARLESTON I,234,32.782,-79.925,,USA,10/01/2024,960,041
BOSTON,235,42.353,-71.053,,USA,10/01/2024,960,171
WEST-TERSCHELLING,236,53.363,5.220,,NLD,19/07/2023,150,011
PRIMORSK,237,60.350,28.617,,RUS,01/01/1980,080,004
TVARMINNE,238,59.850,23.250,,FIN,01/01/1980,060,306
TURKU / ABO,239,60.428,22.101,,FIN,05/03/2024,060,241
RAAHE / BRAHESTAD,240,64.666,24.407,,FIN,05/03/2024,060,021
LOS ANGELES,245,33.720,-118.272,,USA,10/01/2024,823,051
PENSACOLA,246,30.403,-87.210,288,USA,16/01/2024,940,041
PORT LYTTELTON,247,-43.606,172.722,,NZL,18/09/2023,690,021
JOHOR BAHRU,248,1.462,103.792,,MYS,04/05/2017,550,011
FOGLO / DEGERBY,249,60.032,20.385,,ALA,05/03/2024,060,281
DUNEDIN,252,-45.879,170.513,,NZL,01/01/1980,690,031
PORT SAID,253,31.250,32.300,,EGY,01/01/1980,330,001
DOVER,255,51.114,1.323,,GBR,02/02/2024,170,111
LA JOLLA (SCRIPPS PIER),256,32.867,-117.257,159,USA,16/01/2024,823,071
AVONMOUTH,257,51.508,-2.713,,GBR,27/01/2016,170,171
PONTA DELGADA,258,37.736,-25.671,245,PRT,13/08/2019,360,001
LYTTELTON II,259,-43.606,172.722,,NZL,17/01/2003,690,022
"JOLO, SULU",260,6.067,121.000,70,PHL,30/03/1999,660,141
ASTORIA (TONGUE POINT),265,46.207,-123.768,,USA,10/01/2024,823,013
SEWARD,266,60.120,-149.427,150,USA,16/01/2024,821,017
NEWCASTLE III,267,-32.917,151.800,,AUS,12/04/1989,680,133
MACAU,269,22.200,113.550,,MAC,06/09/1990,609,001
DAYTONA BEACH,270,29.233,-81.000,,USA,01/01/1980,960,006
MOMMARK,271,54.933,10.067,,DNK,01/01/1980,130,061
DURBAN,284,-29.874,31.051,13,ZAF,02/11/2023,430,091
KASKINEN / KASKO,285,62.344,21.215,,FIN,05/03/2024,060,071
IMMINGHAM,286,53.630,-0.187,,GBR,02/02/2024,170,061
SEAVEY ISLAND,288,43.080,-70.742,,USA,26/10/1990,960,177
PIONERSKY,289,54.950,20.217,97,RUS,29/06/1988,080,181
"SEWELLS POINT, HAMPTON ROADS",299,36.947,-76.330,,USA,10/01/2024,960,071
"HILO,  HAWAII ISLAND",300,19.730,-155.055,287,USA,26/01/2024,760,061
TREGDE,302,58.006,7.555,321,NOR,18/01/2024,040,301
SANTA CRUZ DE TENERIFE I,303,28.477,-16.241,,ESP,17/11/1993,370,021
BEACHPORT,304,-37.500,140.000,,AUS,31/05/1989,680,251
YAMBA,310,-29.430,153.362,,AUS,21/02/2024,680,101
ANNAPOLIS (NAVAL ACADEMY),311,38.983,-76.480,,USA,10/01/2024,960,080
NARVIK,312,68.428,17.426,,NOR,18/01/2024,040,081
HEIMSJOEN,313,63.425,9.102,,NOR,18/01/2024,040,151
STORNOWAY,314,58.208,-6.389,238,GBR,02/02/2024,170,251
HAMINA,315,60.563,27.179,,FIN,05/03/2024,060,361
MAYPORT,316,30.393,-81.432,,USA,01/06/2001,960,011
BOURGAS,317,42.483,27.483,,BGR,27/08/1997,295,021
VARNA,318,43.183,27.917,,BGR,27/08/1997,295,051
BALLINA,319,-28.867,153.583,,AUS,01/01/1980,680,081
NEWCASTLE I,320,-32.917,151.800,,AUS,01/01/1980,680,131
TALLINN,321,59.450,24.800,,EST,01/01/1980,082,011
VILSANDI,322,58.383,21.817,,EST,01/01/1980,082,021
LIMHAMN,323,55.583,12.933,,SWE,01/01/1980,050,061
KLAGSHAMN,330,55.522,12.894,,SWE,09/06/2023,050,051
TAKORADI,331,4.885,-1.745,335,GHA,15/03/2013,410,001
EASTPORT,332,44.903,-66.982,,USA,26/01/2024,960,201
NORTH POINT,333,22.300,114.200,77,HKG,01/01/1980,611,011
SOUTHEND,334,51.514,0.724,,GBR,17/05/2016,170,081
TILBURY,335,51.467,0.367,,GBR,17/01/2018,170,083
TOWER PIER,336,51.500,0.083,,GBR,17/01/2018,170,092
PORTSMOUTH,350,50.802,-1.111,,GBR,02/02/2024,170,131
NEWPORT,351,41.505,-71.327,290,USA,10/01/2024,960,161
SPLIT - GRADSKA LUKA,352,43.507,16.442,,HRV,11/07/2019,280,031
BAKAR,353,45.305,14.540,,HRV,10/05/2024,280,011
MERA,359,34.919,139.825,86,JPN,04/03/2024,642,061
WASHINGTON DC,360,38.873,-77.022,,USA,10/01/2024,960,076
ABERDEEN I,361,57.144,-2.077,,GBR,02/02/2024,170,011
WILLETS POINT,362,40.793,-73.782,,USA,01/06/2001,960,141
MIAMI BEACH,363,25.768,-80.132,,USA,05/10/1987,960,001
GDYNIA,364,54.533,18.550,,POL,01/01/1980,110,032
LINAKHAMARI,365,69.650,31.367,,RUS,01/01/1980,030,025
SANDY HOOK,366,40.467,-74.008,,USA,10/01/2024,960,101
WOODS HOLE (OCEAN. INST.),367,41.523,-70.672,,USA,10/01/2024,960,165
ST. GEORGES / ESSO PIER (BERMUDA),368,32.373,-64.703,221,BMU,26/01/2024,950,011
GARDEN REACH,369,22.550,88.300,,IND,11/04/2023,500,141
THESSALONIKI,373,40.633,22.935,,GRC,15/10/2020,290,051
PIRAIEVS,374,37.937,23.627,,GRC,20/02/2024,290,031
KAVALLA,375,40.935,24.412,,GRC,20/02/2024,290,061
RAUMA / RAUMO,376,61.134,21.426,,FIN,05/03/2024,060,121
SANTA MONICA (MUNICIPAL PIER),377,34.008,-118.500,,USA,10/01/2024,823,049
CRESCENT CITY,378,41.745,-124.182,,USA,10/01/2024,823,021
CONSTANTZA,379,44.167,28.667,,ROU,01/07/1998,297,021
ANGRA DO HEROISMO,380,38.650,-27.233,,PRT,04/11/1998,360,011
PORT WALLAROO,383,-33.933,137.633,,AUS,01/01/1980,680,381
FRIDAY HARBOR (OCEAN. LABS.),384,48.547,-123.010,,USA,10/01/2024,823,006
NEAH BAY,385,48.367,-124.612,,USA,16/01/2024,823,001
THEVENARD,386,-32.149,133.641,308,AUS,01/02/2024,680,441
GRONDINES,387,46.583,-72.033,,CAN,04/06/1996,970,085
FORCADOS,389,5.350,5.350,,NGA,05/10/1992,420,011
DUTCH HARBOR,390,53.900,-166.533,102,USA,01/01/1980,820,020
PORT AUX BASQUES,392,47.567,-59.133,,CAN,16/02/2024,970,111
"ST. JOHN'S, NFLD.",393,47.567,-52.717,223,CAN,16/02/2024,970,121
CEBU,394,10.300,123.917,,PHL,13/06/2023,660,101
FORT PULASKI,395,32.033,-80.902,289,USA,10/01/2024,960,031
WILMINGTON,396,34.227,-77.953,,USA,26/01/2024,960,060
SASSNITZ,397,54.511,13.643,,DEU,14/04/2023,120,004
KJOLSDAL,398,61.917,5.633,,NOR,10/10/1994,040,201
PORTSMOUTH (NORFOLK NAVY YARD),399,36.822,-76.293,,USA,26/06/1990,960,065
NEVLUNGHAVN,401,58.967,9.883,,NOR,01/01/1980,040,311
FRANKLIN HARBOR,402,-33.683,136.933,,AUS,01/01/1980,680,421
JUNEAU,405,58.298,-134.412,,USA,16/01/2024,821,044
UCHIURA,407,35.017,138.890,,JPN,04/03/2024,642,118
KHIOS,408,38.372,26.141,,GRC,20/02/2024,290,071
POSIDHONIA,409,37.951,22.960,,GRC,20/02/2024,290,011
PREVEZA,410,38.959,20.757,,GRC,20/02/2024,290,001
KALAMAI,411,37.024,22.116,,GRC,20/02/2024,290,021
SOLOMON'S ISLAND (BIOL. LAB.),412,38.317,-76.452,,USA,10/01/2024,960,078
OOSTENDE,413,51.233,2.917,,BEL,26/01/2024,160,021
VISAKHAPATNAM,414,17.683,83.283,35,IND,24/02/2023,500,101
PORT OF SPAIN,415,10.650,-61.517,203,TTO,15/11/1999,890,001
SAUGOR/SAGAR,417,21.650,88.050,,IND,27/01/2016,500,111
GUANTANAMO BAY,418,19.907,-75.147,,CUB,17/07/2001,930,051
BHAUNAGAR I,420,21.800,72.300,,IND,01/01/1980,500,030
AKYAB,421,20.133,92.900,37,MMR,01/01/1980,530,001
ANDENES,425,69.326,16.135,322,NOR,18/01/2024,040,041
SITKA,426,57.052,-135.342,154,USA,10/01/2024,821,031
CHARLOTTETOWN,427,46.233,-63.117,,CAN,16/02/2024,970,031
CEDAR KEY II,428,29.135,-83.032,,USA,10/01/2024,940,052
NEW LONDON,429,41.360,-72.090,,USA,10/01/2024,960,151
PROVIDENCE (STATE PIER),430,41.807,-71.400,,USA,10/01/2024,960,158
MONTEVIDEO (PUNTA LOBOS),431,-34.900,-56.250,300,URY,20/02/2024,870,011
DUBLIN,432,53.350,-6.217,,IRL,15/03/2017,175,071
COLONIA,433,-34.483,-57.850,,URY,23/05/1996,870,001
PUNTA DEL ESTE,434,-34.967,-54.950,,URY,23/05/1996,870,021
DOUGLAS,435,54.150,-4.467,,IMN,07/04/1992,170,231
FAMAGUSTA,436,35.117,33.950,,CYP,09/11/1989,315,001
ALAMEDA (NAVAL AIR STATION),437,37.772,-122.298,,USA,10/01/2024,823,032
COCHIN (WILLINGDON IS.),438,9.967,76.267,32,IND,24/02/2023,500,081
PORT MORESBY,439,-9.483,147.133,,PNG,20/05/1996,670,011
EUGENE ISLAND,440,29.372,-91.385,,USA,26/10/1990,940,011
BERLEVAG,442,70.850,29.100,,NOR,01/01/1980,040,011
SECOND VALLEY,443,-35.517,138.167,,AUS,01/01/1980,680,321
FORT PHRACHULA CHOMKLAO (POM PHRACHUN),444,13.550,100.583,,THA,15/09/2023,600,041
YAKUTAT,445,59.548,-139.733,,USA,16/01/2024,821,026
KO TAPHAO NOI,446,7.833,98.433,42,THA,15/09/2023,545,001
CHURCHILL,447,58.767,-94.183,,CAN,16/02/2024,970,141
PORT ADELAIDE (OUTER HARBOR),448,-34.780,138.481,,AUS,01/02/2024,680,311
KO SICHANG,449,13.150,100.817,,THA,28/05/2003,600,051
LE HAVRE,453,49.482,0.106,,FRA,30/01/2024,190,051
ST. MALO,454,48.641,-2.028,,FRA,30/01/2024,190,071
CALAIS,455,50.969,1.868,,FRA,30/01/2024,190,011
BUENAVENTURA,456,3.900,-77.100,170,COL,04/11/2015,842,011
ST. NAZAIRE,457,47.270,-2.200,,FRA,30/01/2024,190,111
MATARANI,458,-17.000,-72.117,,PER,01/03/1990,848,051
LE VERDON,459,45.550,-1.067,,FRA,01/01/1980,190,131
HACHINOHE I,460,40.533,141.533,,JPN,01/01/1980,642,001
UWAJIMA I,461,33.233,132.550,,JPN,01/01/1980,644,021
RICHMOND,462,37.567,-77.450,,USA,01/01/1980,960,068
MIYAKO I,463,39.633,141.967,,JPN,01/01/1980,642,011
PUNTARENAS,464,9.967,-84.833,,CRI,01/01/1980,836,001
LA ROCHELLE-LA PALLICE,466,46.158,-1.221,,FRA,30/01/2024,190,121
CHERBOURG,467,49.651,-1.636,,FRA,30/01/2024,190,061
DUNKERQUE,468,51.048,2.367,,FRA,30/01/2024,190,001
ST JEAN DE LUZ (SOCOA),469,43.395,-1.682,,FRA,30/01/2024,190,141
ZEEBRUGGE,470,51.350,3.200,,BEL,26/01/2024,160,011
BOULOGNE,471,50.728,1.577,,FRA,30/01/2024,190,021
PUNTA ARENAS,473,-53.167,-70.900,,CHL,19/07/1996,850,061
DIEPPE,474,49.929,1.084,,FRA,30/01/2024,190,031
TALARA,475,-4.617,-81.283,,PER,01/01/1980,848,011
DAKAR,476,14.633,-17.450,253,SEN,01/01/1980,390,001
PORT LOUIS,477,-20.150,57.500,18,MUS,12/06/1991,450,011
CAMBRIDGE,481,38.575,-76.072,,USA,01/01/1980,960,074
VIGO,483,42.238,-8.731,,ESP,05/03/2019,200,041
LA CORUÑA I,484,43.369,-8.398,243,ESP,05/03/2019,200,030
SANTANDER I,485,43.461,-3.791,,ESP,05/03/2019,200,011
MALOY,486,61.934,5.113,,NOR,18/01/2024,040,211
ADAK  SWEEPER COVE,487,51.863,-176.632,302,USA,10/01/2024,820,011
TARIFA,488,36.009,-5.603,,ESP,05/03/2019,220,021
NIEUWPOORT,489,51.150,2.733,,BEL,26/01/2024,160,031
ALGECIRAS,490,36.121,-5.435,,ESP,20/11/2006,220,011
MASSACRE BAY,491,52.833,173.200,,USA,01/01/1980,820,001
STENHOUSE BAY,492,-35.250,137.767,,AUS,01/01/1980,680,371
WHYALLA,493,-33.017,137.567,,AUS,01/01/1980,680,411
SKAGWAY,495,59.450,-135.327,,USA,10/01/2024,821,041
MALAGA,496,36.713,-4.415,,ESP,27/04/2015,220,031
PORT ISABEL,497,26.060,-97.215,,USA,10/01/2024,940,001
CEUTA,498,35.892,-5.316,249,ESP,05/03/2019,340,001
VALPARAISO,499,-33.027,-71.626,175,CHL,07/05/2024,850,031
WELLINGTON II,500,-41.284,174.780,101,NZL,04/03/2013,690,012
PUERTO MADRYN,501,-42.767,-65.033,191,ARG,01/02/2023,860,031
ALEXANDRIA,503,31.217,29.917,349,EGY,18/09/2013,330,071
VILLA SANJURJO,506,35.250,-3.917,,MAR,01/01/1980,350,004
PORT SAN LUIS,508,35.177,-120.760,,USA,10/01/2024,823,042
ALESUND,509,62.469,6.152,,NOR,18/01/2024,040,191
ANTOFAGASTA 2,510,-23.653,-70.404,174,CHL,07/05/2024,850,012
ANTOFAGASTA,511,-23.650,-70.417,174,CHL,19/11/1992,850,011
KWAJALEIN,513,8.732,167.735,111,MHL,26/01/2024,720,011
KINGSTON,515,-36.833,139.850,,AUS,01/01/1980,680,271
EDITHBURG,516,-35.083,137.750,,AUS,01/01/1980,680,341
KUSHIRO,518,42.976,144.371,89,JPN,04/03/2024,641,021
MONTAUK,519,41.048,-71.960,,USA,10/01/2024,960,135
ST. PETERSBURG,520,27.760,-82.627,,USA,10/01/2024,940,061
"KAHULUI HARBOR, MAUI ISLAND",521,20.895,-156.477,,USA,26/01/2024,760,051
"LEGASPI, ALBAY",522,13.150,123.750,72,PHL,13/06/2023,660,021
MIDWAY ISLAND,523,28.212,-177.360,106,UMI,26/01/2024,760,001
VARDO,524,70.375,31.104,323,NOR,18/01/2024,040,001
"BAR HARBOR, FRENCHMAN BAY, ME",525,44.392,-68.205,,USA,26/01/2024,960,191
GRAND ISLE,526,29.263,-89.957,,USA,10/01/2024,940,021
PORT ALBERNI,527,49.233,-124.817,,CAN,19/04/2000,822,111
"CHUUK,  MOEN ISLAND",528,7.447,151.847,116,FSM,10/03/2000,710,001
EVENSKJAER,531,68.583,16.550,,NOR,01/01/1980,040,071
"DAVAO, DAVAO GULF",537,7.083,125.633,71,PHL,13/06/2023,660,121
ROCKPORT,538,28.022,-97.047,,USA,10/01/2024,940,005
PAGO PAGO,539,-14.280,-170.690,144,ASM,26/01/2024,745,001
APRA HARBOR,540,13.438,144.653,149,GUM,26/01/2024,701,001
BARENTSBURG,541,78.067,14.250,231,SJM,28/06/2023,025,001
IMBITUBA,542,-28.233,-48.650,351,BRA,01/01/1980,874,031
DIAMOND HARBOUR,543,22.200,88.167,,IND,22/01/2020,500,131
LA LIBERTAD II,544,-2.200,-80.917,172,ECU,18/04/2018,845,012
KEELUNG II,545,25.133,121.733,,TWN,28/04/1998,612,002
YUZHNO KURILSK,546,44.017,145.867,90,RUS,25/01/1996,630,001
BARENTSBURG II (SPITSBERGEN),547,78.067,14.250,231,SJM,14/08/2019,025,002
"SAN FERNANDO, LA UNION",548,16.617,120.300,,PHL,27/06/1990,660,001
CAMP COVE,549,-33.833,151.283,,AUS,20/02/1990,680,151
PUERTO LIMON,552,10.000,-83.033,,CRI,18/05/1994,906,011
ALERT BAY,554,50.583,-126.950,,CAN,01/01/1980,822,021
LA LIBERTAD,555,-2.200,-80.917,172,ECU,01/01/1980,845,011
RECIFE,556,-8.050,-34.867,,BRA,01/01/1980,874,121
PUERTO CORTES,557,15.833,-87.950,,HND,01/01/1980,908,031
LA UNION,558,13.333,-87.817,,SLV,01/01/1980,833,001
FORTALEZA,559,-3.717,-38.483,336,BRA,01/01/1980,874,151
PASAJES,561,43.327,-1.922,,ESP,01/01/1980,200,001
BODO,562,67.288,14.391,,NOR,18/01/2024,040,101
GIBARA,563,21.108,-76.125,276,CUB,20/09/2023,930,031
MACKAY,564,-21.100,149.233,,AUS,01/02/2024,680,061
LAS PALMAS C (PUERTO DE LA LUZ),565,28.147,-15.408,251,ESP,05/03/2019,370,045
CORDOVA,566,60.558,-145.752,,USA,26/01/2024,821,020
"KODIAK ISLAND,  WOMENS BAY",567,57.732,-152.512,,USA,10/01/2024,821,011
SANTA CRUZ DE LA PALMA B,568,28.672,-17.769,,ESP,05/03/2019,370,015
TIKSI (TIKSI BUKHTA),569,71.583,128.917,313,RUS,13/08/2013,030,447
TALCAHUANO,571,-36.683,-73.100,,CHL,07/05/2024,850,041
CARTAGENA,572,10.400,-75.550,207,COL,20/04/1994,902,021
PORT AUGUSTA,574,-32.550,137.783,,AUS,11/03/1987,680,401
KANTON ISLAND,575,-2.800,-171.717,145,KIR,01/01/1980,750,011
PUERTO PLATA,577,19.817,-70.700,,DOM,01/01/1980,936,021
SALVADOR,578,-12.967,-38.517,334,BRA,01/01/1980,874,111
RIO DE JANEIRO,579,-22.933,-43.133,,BRA,01/01/1980,874,091
BELEM,580,-1.450,-48.500,,BRA,01/01/1980,874,161
NAOS ISLAND,581,8.918,-79.550,,PAN,01/01/1980,840,021
PORT AU PRINCE,583,18.567,-72.350,209,HTI,01/01/1980,934,011
SANTA CRUZ DE LA PALMA,585,28.680,-17.766,,ESP,01/01/1980,370,011
SALINOPOLIS,589,-0.650,-47.383,,BRA,01/01/1980,874,158
"LAS PALMAS, PUERTO DE LA LUZ",590,28.136,-15.426,251,ESP,25/11/1993,370,041
BARACOA,592,20.350,-74.500,,CUB,27/09/2023,930,041
ARRECIFE,593,28.972,-13.530,,ESP,05/03/2019,370,001
WAKE ISLAND,595,19.290,166.617,105,MHL,16/01/2024,720,021
KANDLA,596,23.017,70.217,,IND,15/02/2023,500,011
GLOUCESTER POINT,597,37.247,-76.500,,USA,26/01/2005,960,072
JOHNSTON ISLAND,598,16.738,-169.530,109,UMI,28/01/2020,760,011
AMDERMA,599,69.750,61.700,,RUS,11/08/2021,030,310
UST KARA,600,69.250,64.517,,RUS,11/08/2021,030,315
FEDOROVA (CHELUSKIN MYS),601,77.717,104.300,,RUS,11/08/2021,030,392
SANNIKOVA (SANNIKOVA PROLIV),602,74.667,138.900,,RUS,11/08/2021,030,480
SHALAUROVA (SHALAUROVA MYS),603,73.183,143.233,,RUS,13/08/2013,030,516
AMBARCHIK,604,69.617,162.300,,RUS,14/08/2019,030,535
RAU-CHUA,605,69.500,166.583,,RUS,14/08/2019,030,556
PEVEK,606,69.700,170.250,,RUS,14/08/2019,030,567
VANKAREM,607,67.833,-175.833,,RUS,14/08/2019,030,630
VRANGELIA (VRANGELIA OSTROV),608,70.983,-178.483,,RUS,14/08/2019,030,620
MALYE KARMAKULY,609,72.367,52.700,,RUS,14/08/2019,030,016
UST OLENEK,610,73.000,119.867,,RUS,14/08/2019,030,435
DIKSON,611,73.500,80.400,312,RUS,11/08/2021,030,345
STERLEGOVA (STERLEGOVA MYS),612,75.417,88.900,,RUS,11/08/2021,030,365
NETTEN,613,66.967,-171.933,,RUS,16/01/2003,030,650
QINHUANGDAO,614,39.900,119.600,,CHN,24/07/1995,610,039
PRAVDY (PRAVDY OSTROV),615,76.267,94.767,,RUS,14/08/2019,030,378
MYS SHMIDTA,616,68.900,-179.367,,RUS,16/01/2003,030,610
RATMANOVA,617,65.850,-169.133,,RUS,14/08/2019,030,670
ARICA,618,-18.467,-70.333,,CHL,19/11/1992,850,001
CALDERA,619,-27.067,-70.833,,CHL,19/11/1992,850,021
MALYI TAIMYR (MALYI TAIMYR OSTROV),620,78.083,106.817,,RUS,08/01/2003,030,414
KOLUCHIN,621,67.483,-174.650,,RUS,16/01/2003,030,640
UGORSKII SHAR (UGORSKII SHAR PROLIV),622,69.817,60.750,,RUS,14/08/2019,030,308
TOBA,627,34.467,136.850,,JPN,01/01/1980,642,134
COMOX,630,49.667,-124.917,,CAN,01/01/1980,822,031
AMERICAN RIVER,631,-35.800,137.767,,AUS,01/01/1980,680,361
IRAKLION,634,35.348,25.153,,GRC,18/07/2013,290,101
ONAHAMA,635,36.938,140.892,,JPN,04/03/2024,642,041
KIPTOPEKE BEACH,636,37.165,-75.988,,USA,10/01/2024,960,083
TOWNSVILLE I,637,-19.250,146.833,60,AUS,01/02/2024,680,051
REYKJAVIK,638,64.151,-21.940,229,ISL,14/02/2023,010,001
TUMACO,639,1.833,-78.733,171,COL,04/11/2015,842,021
DUNAI (DUNAI OSTROV),640,73.933,124.500,,RUS,13/08/2013,030,440
KOTELNYI (KOTELNYI OSTROV),641,76.000,137.867,,RUS,11/08/2021,030,475
KIGILIAH,642,73.333,139.867,,RUS,11/08/2021,030,485
KOLOBRZEG,643,54.183,15.550,,POL,19/10/2001,110,072
USTKA,644,54.583,16.867,,POL,19/10/2001,110,057
WLADYSLAWOWO,645,54.800,18.417,,POL,19/10/2001,110,047
ANDREIA (ANDREIA OSTROV),646,76.800,110.750,,RUS,08/01/2003,030,410
ZHELANIA II (ZHELANIA MYS),647,76.950,68.550,,RUS,14/08/2019,030,321
GEIBERGA (GEIBERGA OSTROV),648,77.600,101.517,,RUS,14/08/2019,030,387
MUOSTAH ( MUOSTAH OSTROV),649,71.550,130.033,,RUS,08/01/2003,030,455
CHETYREHSTOLBOVOI,650,70.633,162.483,,RUS,16/01/2003,030,550
BOLVANSKII NOS (FEDOROVA),651,70.450,59.083,,RUS,14/08/2019,030,305
PREOBRAZHENIA (PREOBRAZHENIA OSTROV),652,74.667,112.933,,RUS,08/01/2003,030,418
POPOVA (BELYI OSTROV),653,73.333,70.050,,RUS,14/08/2019,030,325
LESKINA (LESKINA MYS),654,72.317,79.567,,RUS,14/08/2019,030,340
RUSSKII (RUSSKII OSTROV),655,77.167,96.433,,RUS,14/08/2019,030,380
SOLNECHNAIA (SOLNECHNAIA BUKHTA),656,78.200,103.267,,RUS,14/08/2019,030,390
SVIATOI NOS (SVIATOI NOS MYS),657,72.833,140.733,,RUS,06/01/2003,030,397
ZEMLIA BUNGE,658,74.883,142.117,,RUS,13/01/2003,030,510
IZUHARA,661,34.200,129.300,,JPN,04/05/1988,645,081
PROVIDENIA,662,64.417,-173.233,309,RUS,14/08/2019,030,725
MAIZURU I,663,35.483,135.400,,JPN,01/01/1980,647,061
"TACLOBAN, LEYTE",664,11.250,125.000,,PHL,01/01/1980,660,071
ENEWETOK,665,11.367,162.350,,MHL,01/01/1980,720,001
MARII PRONCHISHEVOI (BUKHTA),667,75.533,113.433,,RUS,08/01/2003,030,420
PUERTO ARMUELLES,668,8.267,-82.867,,PAN,01/01/1980,840,001
TOKUYAMA I,669,34.033,131.800,,JPN,01/01/1980,643,051
REGGIO CALABRIA,670,38.100,15.650,,ITA,01/01/1980,250,061
HAKODATE II,671,41.767,140.717,88,JPN,06/12/1990,641,032
SASEBO I,672,33.167,129.717,,JPN,01/01/1980,645,071
TUKIZI,673,35.667,139.767,,JPN,01/01/1980,642,063
ONAGAWA,674,38.433,141.467,,JPN,01/01/1980,642,028
BRIGHTON,677,-35.033,138.517,,AUS,01/01/1980,680,291
OMINATO,679,41.250,141.150,,JPN,21/04/2009,647,111
TROMSO,680,69.646,18.955,,NOR,18/01/2024,040,031
HARSTAD,681,68.801,16.548,,NOR,18/01/2024,040,061
KRISTIANSUND,682,63.114,7.734,,NOR,18/01/2024,040,161
BURNIE,683,-41.050,145.915,,AUS,27/02/2023,680,193
MURMANSK,684,68.967,33.050,274,RUS,28/06/2023,030,018
SPLIT RT MARJANA,685,43.508,16.392,,HRV,04/11/2010,280,021
ACAPULCO,686,16.833,-99.917,267,MEX,24/06/2015,830,081
MURMANSK II,687,68.967,33.050,274,RUS,14/08/2019,030,019
FULFORD HARBOUR,688,48.767,-123.450,,CAN,04/06/1996,822,096
SALINA CRUZ,689,16.167,-95.200,,MEX,14/05/2013,830,091
PROGRESO,690,21.300,-89.667,213,MEX,24/06/2015,920,001
COATZACOALCOS,692,18.150,-94.417,,MEX,23/01/1992,920,021
GUAYMAS,693,27.917,-110.900,,MEX,14/05/2013,830,031
LA PAZ,695,24.167,-110.350,,MEX,14/05/2013,830,021
MANGALORE,696,12.850,74.833,,IND,27/01/2016,500,071
CANAVIEIRAS,699,-15.667,-38.967,,BRA,01/01/1980,874,106
KAINAN,701,34.144,135.191,,JPN,04/03/2024,643,013
HANSTHOLM,703,57.119,8.596,,DNK,27/11/2018,130,111
VISE (VISE OSTROV),704,79.500,76.983,,RUS,14/08/2019,030,338
UEDINENIA (UEDINENIA OSTROV),707,77.500,82.200,,RUS,14/08/2019,030,348
BILLINGA,708,69.883,175.767,,RUS,16/01/2003,030,578
UADEI,709,71.517,136.417,,RUS,08/01/2003,030,468
RUSSKAIA GAVAN II,710,76.183,62.583,99,RUS,17/01/2003,030,003
RUSSKAYA GAVAN,711,76.200,62.583,99,RUS,12/07/1994,030,001
MAZATLAN,712,23.200,-106.417,,MEX,14/02/1996,830,051
RIOHACHA,714,11.550,-72.917,,COL,01/01/1980,902,011
JACKSONVILLE,716,30.350,-81.617,,USA,01/01/1980,960,012
ALAMITOS BAY ENTRANCE,717,33.750,-118.117,,USA,01/01/1980,823,056
MOREHEAD CITY,719,34.717,-76.733,,USA,01/01/1980,960,062
ASAMUSHI,721,40.898,140.859,,JPN,04/03/2024,647,121
YOKOSUKA,722,35.288,139.651,,JPN,03/02/2023,642,081
DALIAN,723,38.867,121.683,79,CHN,28/03/2023,610,044
SEMBAWANG,724,1.467,103.833,,SGP,24/04/2023,555,051
FREEPORT,725,28.948,-95.308,,USA,27/05/2009,940,006
CANANEIA,726,-25.017,-47.933,194,BRA,18/07/2007,874,051
XIAMEN,727,24.450,118.067,247,CHN,05/11/2007,610,005
IZVESTIA TSIK (IZVESTIA TSIK OSTROVA),728,75.950,82.950,,RUS,14/08/2019,030,360
GOLOMIANYI (GOLOMIANYI OSTROV),729,79.550,90.617,,RUS,14/08/2019,030,374
AION,730,69.933,167.983,,RUS,13/07/2010,030,560
YANTAI,731,37.533,121.383,,CHN,21/07/1995,610,036
MORZHOVAIA (HARASAVEI MYS),732,71.417,67.583,,RUS,14/08/2019,030,318
ISACHENKO (ISACHENKO OSTROV),734,77.150,89.200,,RUS,14/08/2019,030,370
BUORHAIA (BUORHAIA MYS),735,71.950,132.767,,RUS,08/01/2003,030,464
KOSYSTYI (KOSYSTYI MYS),736,73.650,109.733,,RUS,14/08/2019,030,394
MANZANILLO,737,19.050,-104.333,163,MEX,23/01/1992,830,071
KRASNOFLOTSKIE (KRASNOFLOTSKIE OSTROVA),738,78.600,98.833,,RUS,14/08/2019,030,385
MALYSHEVA (MALYSHEVA OSTROV),741,72.067,129.833,,RUS,08/01/2003,030,452
HARWICH,742,51.948,1.292,,GBR,02/02/2024,170,073
PORT ROYAL,744,17.933,-76.850,210,JAM,01/01/1980,932,011
BARAHONA,745,18.200,-71.083,,DOM,01/01/1980,936,011
AMHERST,746,16.083,97.567,,MMR,01/01/1980,530,031
MOULMEIN,747,16.483,97.617,141,MMR,01/01/1980,530,021
KURE II,749,34.233,132.533,,JPN,01/01/1980,643,041
NEZUGASEKI,752,38.563,139.546,,JPN,04/03/2024,647,091
KASHIWAZAKI,753,37.357,138.508,,JPN,04/03/2024,647,081
LOWESTOFT,754,52.473,1.750,,GBR,02/02/2024,170,068
MILLPORT,755,55.750,-4.906,,GBR,02/02/2024,170,241
"NAWILIWILI BAY, KAUAI ISLAND",756,21.953,-159.355,,USA,26/01/2024,760,021
UNALASKA,757,53.880,-166.537,102,USA,10/01/2024,820,021
HAMMERFEST,758,70.665,23.679,,NOR,18/01/2024,040,021
MAGUEYES ISLAND,759,17.970,-67.045,,PRI,16/01/2024,938,011
DUBROVNIK,760,42.658,18.063,,HRV,11/07/2019,280,081
ROVINJ,761,45.083,13.628,,HRV,11/07/2019,280,006
RODBYHAVN,762,54.656,11.349,,DNK,27/11/2018,130,011
LA CORUÑA II,763,43.364,-8.399,243,ESP,04/07/2023,200,031
LA PALOMA,764,-34.650,-54.150,,URY,20/02/2024,870,031
BIRKENHEAD (ALFRED DOCK),765,53.400,-3.017,,GBR,25/06/1992,170,201
NEWPORT BAY,766,33.603,-117.882,,USA,16/07/1993,823,057
TADIBE-IAHA,767,70.367,72.567,,RUS,06/01/2003,030,328
ALVARADO,768,18.767,-95.767,,MEX,23/01/1992,920,031
VERAVAL,770,20.900,70.367,31,IND,27/01/2016,500,021
CHIMBOTE,771,-9.083,-78.633,,PER,01/01/1980,848,021
MONBETU I,772,44.350,143.367,,JPN,01/01/1980,641,001
"SANDWICH MARINA, CAPE COD CANAL ENTRANCE",775,41.767,-70.500,,USA,01/01/1980,960,168
BUZZARDS BAY,776,41.742,-70.617,,USA,01/01/1980,960,163
SAN JOSE II,777,13.917,-90.817,,GTM,03/12/1997,832,012
PUERTO CASTILLA,779,16.017,-86.033,,HND,01/01/1980,908,011
MOSJOEN,781,65.850,13.200,,NOR,01/01/1980,040,121
PUERTO DE HIERRO,782,10.617,-62.083,,VEN,01/01/1980,900,001
SHIMONOSEKI II,783,33.967,130.950,,JPN,01/01/1980,647,012
REEDY POINT,786,39.558,-75.573,,USA,10/01/2024,960,089
NELSON,787,-41.261,173.273,,NZL,18/09/2023,690,071
MONACO (FONTVIEILLE),788,43.729,7.421,,MCO,30/01/2024,233,011
KIEL-HOLTENAU,789,54.372,10.157,,DEU,14/04/2023,125,021
TERPIAI-TUMSA,790,73.550,118.667,,RUS,08/01/2003,030,430
LEIXOES,791,41.183,-8.700,,PRT,02/03/2023,210,012
VALKARKAI,792,70.083,170.933,,RUS,16/01/2003,030,570
TOPOLOBAMPO,793,25.600,-109.050,,MEX,21/01/1992,830,041
ENSENADA,795,31.850,-116.633,,MEX,12/01/2012,830,001
CIUDAD DEL CARMEN,796,18.633,-91.850,,MEX,24/01/1992,920,011
NEMKOVA (NEMKOVA OSTROV),797,71.417,150.750,,RUS,14/08/2019,030,521
COFF'S HARBOUR,799,-30.317,153.083,,AUS,11/03/1987,680,111
CHRISTMAS ISLAND,801,1.983,-157.467,146,KIR,01/01/1980,770,021
LEITH,802,55.983,-3.167,,GBR,04/08/1989,170,031
BRONNOYSUND,803,65.483,12.217,,NOR,01/01/1980,040,131
BHAUNAGAR II,804,21.750,72.233,,IND,01/01/1980,500,031
SHIMIZU-MINATO,808,35.012,138.518,,JPN,04/03/2024,642,121
KOMATSUSHIMA,809,34.009,134.588,,JPN,04/03/2024,644,051
MISUMI,810,32.623,130.451,,JPN,07/02/2013,645,051
SAKAI,811,35.548,133.243,,JPN,04/03/2024,647,041
UNO,812,34.489,133.949,,JPN,04/03/2024,643,031
HAKODATE I,813,41.782,140.725,88,JPN,04/03/2024,641,031
ABURATSU,814,31.577,131.409,82,JPN,04/03/2024,645,021
TOSA SHIMIZU,815,32.779,132.959,,JPN,04/03/2024,644,011
WAKAYAMA,816,34.222,135.146,,JPN,04/03/2024,643,015
TAN-NOWA,817,34.339,135.178,,JPN,04/03/2024,643,017
LORD HOWE ISLAND,818,-31.517,159.067,148,AUS,21/02/2024,680,121
MAR DEL PLATA (CLUB),819,-38.033,-57.517,192,ARG,01/02/2023,860,101
PORT ELIZABETH,820,-33.951,25.630,76,ZAF,02/11/2023,430,088
NORFOLK ISLAND,821,-29.058,167.954,124,NFK,28/09/2016,680,091
BRISBANE (WEST INNER BAR),822,-27.367,153.167,58,AUS,27/02/2023,680,078
MOKUOLOE ISLAND,823,21.432,-157.790,,USA,26/01/2024,760,041
PETROPAVLOVSK-KAMCHATSKY,824,52.983,158.650,93,RUS,28/06/2023,630,021
GLADSTONE,825,-23.854,151.314,,AUS,01/02/2024,680,071
SIMONS BAY,826,-34.188,18.440,268,ZAF,02/11/2023,430,061
NAGAEVO,827,59.550,150.717,92,RUS,28/06/2023,630,011
"GALVESTON I, PLEASURE PIER, TX",828,29.285,-94.788,217,USA,07/03/2012,940,007
QUEEN CHARLOTTE CITY,829,53.250,-132.067,,CAN,07/02/2023,822,008
LERWICK,830,60.154,-1.140,236,GBR,02/02/2024,170,001
PORT KEMBLA,831,-34.474,150.912,,AUS,27/02/2023,680,161
PALERMO,832,-34.567,-58.400,,ARG,03/01/2024,860,161
EDEN,833,-37.074,149.908,,AUS,21/02/2024,680,171
BUNBURY,834,-33.323,115.660,,AUS,01/02/2024,680,461
KARUMBA,835,-17.500,140.833,,AUS,01/02/2024,680,018
PORT NOLLOTH,836,-29.257,16.868,,ZAF,11/02/2021,430,021
NEWCASTLE V,837,-32.924,151.789,,AUS,01/02/2024,680,135
HOBART,838,-42.877,147.341,,AUS,01/02/2024,680,201
TORSHAVN,839,62.017,-6.767,237,FRO,30/10/2007,015,011
LANGARA POINT,840,54.250,-133.033,,CAN,05/07/2005,822,005
HONDAU,841,20.667,106.800,,VNM,17/11/2015,605,081
PORT RENFREW,842,48.550,-124.417,,CAN,19/04/2000,822,106
SANTA CRUZ DAS FLORES,843,39.450,-31.117,244,PRT,10/08/2016,360,041
QUEPOS,844,9.400,-84.167,167,CRI,14/10/2013,836,011
SHIMONOSEKI I,845,33.967,130.950,,JPN,09/05/1995,647,011
KOBE,846,34.683,135.183,,JPN,21/02/1997,643,024
TAKAMATSU,847,34.350,134.050,,JPN,01/07/1994,644,041
PORT JEFFERSON,848,40.950,-73.077,,USA,16/07/1993,960,138
NOUMEA-CHALEIX,852,-22.300,166.433,123,NCL,13/09/1991,740,001
NEW ROCHELLE,856,40.893,-73.782,,USA,05/06/1987,960,143
MAR DEL PLATA (PUERTO),857,-38.033,-57.533,192,ARG,01/01/1980,860,091
ALMIRANTE BROWN,858,-64.900,-62.867,,ATA,01/01/1980,999,024
BELYI NOS,859,69.600,60.217,,RUS,17/01/2003,030,007
NAGOYA,860,35.083,136.883,,JPN,15/09/1997,642,131
BELFAST,861,54.600,-5.917,,GBR,01/01/1980,170,271
MYRTLE BEACH,862,33.683,-78.885,,USA,01/01/1980,960,051
RESOLUTE,863,74.683,-94.883,,CAN,01/01/1980,970,151
ISLA MARTIN GARCIA,864,-34.183,-58.250,,ARG,01/01/1980,860,171
TABLE BAY HARBOUR,866,-33.917,18.433,,ZAF,10/02/2021,430,051
PIRAMIDE,867,-42.583,-64.283,,ARG,01/01/1980,860,041
KAGOSHIMA I,868,31.600,130.567,,JPN,01/01/1980,645,040
URAKAWA I,869,42.167,142.767,,JPN,01/01/1980,641,026
ROSALES,870,-38.933,-62.067,,ARG,01/01/1980,860,061
PORT MACDONNELL I,871,-38.000,140.667,,AUS,01/01/1980,680,241
MIYAZU,872,35.533,135.183,,JPN,01/01/1980,647,051
CAPO PASSERO,873,36.667,15.300,,ITA,01/01/1980,260,028
USHUAIA I,874,-54.817,-68.217,181,ARG,04/01/2024,860,001
PLUM ISLAND,875,41.167,-72.200,,USA,01/01/1980,960,136
ITO I,876,34.967,139.117,,JPN,01/01/1980,642,111
GRINDAVIK,877,63.833,-22.433,,ISL,01/01/1980,010,011
CHOSHI I,879,35.733,140.867,,JPN,01/01/1980,642,051
MATSUYAMA I,880,33.867,132.700,,JPN,01/01/1980,644,031
TOKYO I,881,35.667,139.767,,JPN,01/01/1980,642,070
STOMPNEUS BAY,882,-32.717,17.983,,ZAF,10/02/2021,430,031
SAN CLEMENTE ISLAND,883,33.000,-118.550,,USA,01/01/1980,823,061
PAGET ISLAND,886,32.367,-64.667,,BMU,01/01/1980,950,001
NASE I,887,28.383,129.500,,JPN,01/01/1980,646,001
RIO SANTIAGO,897,-34.850,-57.900,,ARG,01/01/1980,860,141
MOSSEL BAY,910,-34.179,22.135,,ZAF,11/02/2021,430,081
LUDERITZ,911,-26.643,15.155,,NAM,10/02/2021,427,011
MOZI,912,33.950,130.967,,JPN,21/04/2009,645,004
ARGENTINE ISLANDS,913,-65.246,-64.257,188,ATA,04/06/2019,999,003
WALVIS BAY,914,-22.949,14.499,314,NAM,05/04/2016,427,001
MALIN HEAD,916,55.367,-7.333,239,IRL,15/01/2004,175,011
SOPOCHNAIA KARGA,917,71.867,82.700,,RUS,11/08/2021,030,351
TUXPAN,918,21.000,-97.333,,MEX,15/05/2013,920,051
PADRE ISLAND,919,26.068,-97.152,,USA,16/07/1993,940,003
SABINE PASS,920,29.705,-93.853,,USA,04/11/1988,940,009
SOOKE,921,48.367,-123.733,,CAN,25/10/1993,822,104
"PORT ARANSAS,  H. CALDWELL PIER",922,27.827,-97.050,,USA,03/06/1987,940,004
SAN JUAN,923,-15.367,-75.200,,PER,01/01/1980,848,041
NOSY-BE,926,-13.400,48.283,15,MDG,01/01/1980,440,001
SAN CRISTOBAL,927,-0.900,-89.617,,ECU,01/01/1980,845,021
HERMANUS,928,-34.433,19.233,,ZAF,10/02/2021,430,071
GRAND PORT,930,-20.367,57.750,,MUS,01/01/1980,450,001
ZHAPO,933,21.583,111.817,78,CHN,28/03/2023,610,002
KANMEN,934,28.083,121.283,94,CHN,28/03/2023,610,016
DARWIN,935,-12.472,130.846,62,AUS,01/02/2024,680,011
HEYSHAM,936,54.032,-2.920,,GBR,02/02/2024,170,225
ZHOHOVA (ZHOHOVA OSTROV),937,76.150,152.833,,RUS,13/01/2003,030,528
POINTE NOIRE,938,-4.783,11.833,261,COG,25/11/1993,424,021
FISHGUARD,939,52.013,-4.984,,GBR,18/03/1991,170,183
INVERGORDON,944,57.683,-4.167,,GBR,01/01/1980,170,007
VIRGINIA BEACH,945,36.850,-75.967,,USA,01/01/1980,960,064
KNYSNA,950,-34.049,23.046,,ZAF,10/02/2021,430,086
PORTNEUF,951,46.683,-71.883,,CAN,16/02/2024,970,087
SIBAURA,952,35.633,139.750,,JPN,20/04/2009,642,072
CAIRNS,953,-16.917,145.783,,AUS,01/02/2024,680,041
MOKPO,954,34.780,126.376,,KOR,12/06/2023,620,027
BUSAN,955,35.096,129.036,84,KOR,12/06/2023,620,046
INCHEON,956,37.452,126.592,,KOR,12/06/2023,620,011
ALBANY,957,-35.034,117.893,,AUS,01/02/2024,680,451
SETE,958,43.398,3.699,,FRA,30/01/2024,230,021
KUNSAN,959,35.983,126.717,,KOR,25/01/2001,620,021
ALICANTE 2,960,38.339,-0.481,,ESP,09/06/2021,220,052
SWANSEA,967,51.617,-3.917,,GBR,25/10/1989,170,178
CHINHAE,970,35.150,128.650,,KOR,01/01/1980,620,041
"PINEY POINT, MARYLAND",971,38.133,-76.533,,USA,01/01/1980,960,077
ORTONA,972,42.350,14.400,,ITA,01/01/1980,270,026
SAN JOSE,973,13.917,-90.833,,GTM,01/01/1980,832,011
MOTURIKI ISLAND,978,-37.632,176.185,,NZL,23/11/2010,690,004
LUSI,979,32.133,121.617,283,CHN,05/01/2022,610,032
TOULON,980,43.113,5.915,,FRA,30/01/2024,230,061
GIBRALTAR,981,36.148,-5.365,248,GIB,01/09/2014,215,001
DEVONPORT,982,50.368,-4.185,,GBR,02/02/2024,170,157
COCOS ISLAND (HOME IS.),983,-12.117,96.894,46,CCK,01/02/2024,680,521
BELLA BELLA,984,52.167,-128.133,,CAN,16/02/2024,822,016
CADIZ III,985,36.540,-6.286,,ESP,14/03/2019,220,003
MAPUTO,986,-25.967,32.567,,MOZ,12/10/2005,432,001
"CHI MA WAN, LANTAU ISLAND",987,22.233,114.000,,HKG,13/05/1998,611,008
BAHIA ESPERANZA,988,-63.300,-56.917,185,ATA,11/05/1999,999,001
OTRANTO,990,40.133,18.500,,ITA,01/01/1980,270,011
GREYMOUTH,993,-42.450,171.200,,NZL,01/01/1980,690,051
CALETA PERCY,994,-52.900,-70.267,,CHL,02/12/2015,850,071
PORT TARANAKI,996,-39.056,174.034,,NZL,18/09/2023,690,081
ULSAN,997,35.502,129.387,,KOR,12/06/2023,620,051
TIMARU HARBOUR,998,-44.394,171.256,,NZL,18/09/2023,690,026
ST-FRANCOIS,999,47.000,-70.817,,CAN,16/02/2024,970,068
TUKTOYAKTUK,1000,69.417,-132.967,,CAN,16/02/2024,970,211
SAN JUAN,1001,18.458,-66.115,206,PRI,16/01/2024,938,021
TRIBENI,1002,22.983,88.400,,IND,16/12/2008,500,161
HONNGU,1003,18.800,105.767,,VNM,17/11/2015,605,061
WESTPORT HARBOUR,1004,-41.746,171.595,,NZL,25/05/1995,690,061
CHAMPLAIN,1005,46.433,-72.400,,CAN,04/06/1996,970,080
PESCHANYI (PESCHANYI MYS),1006,79.433,102.483,,RUS,08/01/2003,030,405
WONSAN,1007,39.167,127.450,307,PRK,03/09/1993,625,011
KOPER,1009,45.548,13.725,,SVN,18/12/1997,279,002
ACAJUTLA,1011,13.567,-89.833,182,SLV,03/09/2015,833,011
KRENKELIA (HEISA OSTROV),1012,80.617,58.050,,RUS,14/08/2019,030,014
RINCON ISLAND,1013,34.348,-119.442,,USA,16/07/1993,823,044
PUERTO ANGEL,1015,15.500,-96.500,164,MEX,14/02/1996,830,086
NASE II,1018,28.383,129.500,,JPN,01/01/1980,646,002
SAGYLLAH-ARY,1019,73.150,128.883,,RUS,08/01/2003,030,443
CIUDAD MADERO,1020,22.250,-97.800,,MEX,09/10/1990,920,066
KURE III,1023,34.233,132.550,,JPN,01/01/1980,643,042
ONISAKI,1026,34.904,136.824,,JPN,04/03/2024,642,128
OSHORO II,1027,43.209,140.858,,JPN,04/03/2024,641,042
HIROSIMA,1028,34.353,132.465,,JPN,03/02/2023,643,044
NAIN,1029,56.550,-61.700,224,CAN,16/02/2024,970,134
FUNCHAL,1030,32.644,-16.913,250,PRT,14/04/2009,365,001
GERALDTON,1031,-28.776,114.602,,AUS,01/02/2024,680,474
ILHA FISCAL,1032,-22.897,-43.167,195,BRA,11/08/2023,874,092
STONY POINT,1033,-38.372,145.225,,AUS,01/02/2024,680,178
"TAI PO KAU, TOLO HARBOUR",1034,22.443,114.184,,HKG,12/06/2023,611,014
AMRUM (WITTDUEN),1036,54.617,8.383,,DEU,13/12/2023,140,002
BORKUM (FISCHERBALJE),1037,53.558,6.748,,DEU,13/12/2023,140,016
PORT MANSFIELD,1038,26.553,-97.422,,USA,26/01/2024,940,002
LARK HARBOUR,1044,49.100,-58.367,,CAN,25/10/1993,970,106
TEMA,1049,5.617,0.000,,GHA,01/01/1980,410,016
SANTANDER II,1051,43.466,-3.766,,ESP,01/01/1980,200,012
GUIRIA,1053,10.567,-62.283,,VEN,20/04/2001,900,006
MOZAMBIQUE ISLAND,1054,-15.033,40.733,,MOZ,01/01/1980,432,021
CORRAL,1057,-39.867,-73.433,,CHL,01/01/1980,850,047
MIYAKE SIMA,1060,34.067,139.481,,JPN,03/02/2023,642,098
KOZU SIMA,1061,34.209,139.132,,JPN,03/02/2023,642,099
MATSUYAMA II,1062,33.859,132.712,,JPN,04/03/2024,644,032
MINAMI IZU,1064,34.617,138.883,,JPN,21/04/2009,642,115
WHANGAREI HARBOUR (MARSDEN POINT),1065,-35.757,174.350,,NZL,18/09/2023,690,105
JEJUO RE,1066,33.528,126.543,,KOR,12/06/2023,620,033
ANCHORAGE,1067,61.238,-149.890,,USA,10/01/2024,821,012
BRIDGEPORT,1068,41.173,-73.182,,USA,10/01/2024,960,147
VICTOR HARBOUR,1069,-35.562,138.635,,AUS,05/02/2024,680,275
SELDOVIA,1070,59.440,-151.720,,USA,16/01/2024,821,015
PORT HARDY,1071,50.717,-127.483,,CAN,16/02/2024,822,020
TUTICORIN,1072,8.750,78.200,,IND,28/03/2023,500,083
ROSYTH,1074,56.017,-3.450,,GBR,29/03/1994,170,027
BAR,1075,42.083,19.083,,MNE,03/02/1993,281,011
POINTE ST. GILDAS,1078,47.133,-2.250,,FRA,07/09/1990,190,113
SANTO TOMAS DE CASTILLA,1080,15.700,-88.617,,GTM,01/01/1980,916,001
CUTLER,1081,44.650,-67.217,,USA,01/01/1980,960,197
STANLEY,1082,-51.690,-57.865,305,FLK,01/01/1980,863,001
BELLA COOLA,1084,52.367,-126.783,,CAN,01/01/1980,822,013
PALMA,1087,39.550,2.620,,ESP,22/06/2011,225,001
MAISAKA,1089,34.682,137.609,,JPN,04/03/2024,642,126
URAGAMI,1090,33.558,135.896,,JPN,04/03/2024,642,138
OKADA,1091,34.789,139.391,,JPN,04/03/2024,642,100
AWA SIMA,1093,38.468,139.255,,JPN,03/02/2023,647,090
HAKATA,1094,33.619,130.408,,JPN,03/02/2023,645,091
SAIGO,1095,36.201,133.331,,JPN,04/03/2024,647,043
NISINOOMOTE,1096,30.735,130.992,,JPN,03/02/2023,645,031
ODOMARI,1097,31.024,130.689,,JPN,03/02/2023,645,033
SUMOTO,1098,34.341,134.907,,JPN,04/03/2024,643,026
OSAKA,1099,34.658,135.433,,JPN,04/03/2024,643,021
NAGASAKI,1100,32.735,129.866,83,JPN,04/03/2024,645,064
FUKUE,1101,32.696,128.849,,JPN,04/03/2024,645,066
OURA,1102,32.977,130.221,,JPN,04/03/2024,645,059
WAKKANAI,1103,45.408,141.685,324,JPN,04/03/2024,641,061
ABASHIRI,1104,44.019,144.286,327,JPN,04/03/2024,641,003
NAKANO SIMA,1105,29.842,129.848,,JPN,03/02/2023,646,011
FORT MYERS,1106,26.647,-81.870,,USA,10/01/2024,940,065
NAPLES,1107,26.132,-81.807,,USA,10/01/2024,940,066
MUKHO,1108,37.550,129.116,,KOR,12/06/2023,620,061
WICK,1109,58.441,-3.086,,GBR,02/02/2024,170,005
ALERT,1110,82.490,-62.320,333,CAN,16/02/2024,970,162
NANTUCKET ISLAND,1111,41.285,-70.097,,USA,10/01/2024,960,166
ULLAPOOL,1112,57.895,-5.158,,GBR,02/02/2023,170,249
HELGEROA,1113,58.995,9.856,,NOR,18/01/2024,040,310
ESPERANCE,1114,-33.871,121.895,54,AUS,01/02/2024,680,446
CARNARVON,1115,-24.899,113.651,52,AUS,01/02/2024,680,479
WYNDHAM,1116,-15.453,128.101,,AUS,01/02/2024,680,507
DEVONPORT,1118,-41.185,146.362,,AUS,24/03/2022,680,195
PICTOU,1121,45.683,-62.700,,CAN,01/06/1998,970,021
PUERTO WILLIAMS,1122,-54.917,-67.617,,CHL,07/05/2024,850,081
ANTIPAIUTA,1128,69.083,76.850,,RUS,06/01/2003,030,335
CAMBRIDGE BAY,1132,69.117,-105.067,,CAN,07/06/1989,970,191
ST. MARKS,1136,30.067,-84.183,,USA,01/01/1980,940,047
SANDNESSJOEN,1137,66.017,12.633,,NOR,01/01/1980,040,117
POINT SAPIN,1138,46.967,-64.833,,CAN,01/01/1980,970,038
OFUNATO I,1140,39.067,141.717,87,JPN,01/01/1980,642,021
MAKURAZAKI I,1142,31.267,130.300,,JPN,01/01/1980,645,042
GRINDSTONE,1143,47.383,-61.867,,CAN,01/01/1980,970,034
OWASE,1146,34.076,136.207,,JPN,04/03/2024,642,136
SASEBO II,1147,33.158,129.724,,JPN,03/02/2023,645,072
TAJIRI,1148,35.594,134.316,,JPN,04/03/2024,647,047
MIYAKO II,1149,39.643,141.975,,JPN,04/03/2024,642,012
SHIRAHAMA,1150,33.684,135.375,,JPN,04/03/2024,643,005
NAHA,1151,26.213,127.665,81,JPN,04/03/2024,646,024
PATRICIA BAY,1152,48.650,-123.450,,CAN,16/02/2024,822,098
CAPE MAY,1153,38.968,-74.960,,USA,10/01/2024,960,090
"BUNDABERG, BURNETT HEADS",1154,-24.767,152.383,59,AUS,01/02/2024,680,073
YEOSU,1155,34.747,127.766,,KOR,12/06/2023,620,036
DAUPHIN ISLAND,1156,30.250,-88.075,,USA,10/01/2024,940,037
WEIPA,1157,-12.667,141.867,,AUS,24/03/2022,680,021
YARMOUTH,1158,43.833,-66.133,,CAN,16/02/2024,970,007
BROOME,1159,-18.001,122.219,40,AUS,01/02/2024,680,497
MILNER BAY (GROOTE EYLANDT),1160,-13.860,136.416,,AUS,27/02/2023,680,015
PARADIP,1161,20.267,86.700,,IND,13/03/2023,500,106
SIBONEY,1162,23.100,-82.467,215,CUB,20/09/2023,930,016
RABAUL,1164,-4.200,152.183,65,PNG,08/12/1998,670,021
"ST. PAUL'S HARBOR, KODIAK",1179,57.745,-152.482,,USA,06/07/1990,821,009
DAYTONA BEACH SHORES,1182,29.147,-80.963,,USA,05/10/1987,960,007
VICTORIA DOCK,1183,1.267,103.850,44,SGP,26/05/1988,555,001
KOCHI II,1184,33.500,133.583,,JPN,01/01/1980,644,002
MARATHON SHORES,1187,24.733,-81.033,,USA,01/01/1980,940,091
MIKUNI,1190,36.255,136.149,,JPN,04/03/2024,647,065
KATSUURA,1191,35.129,140.249,,JPN,04/03/2024,642,055
EAST LONDON,1192,-33.027,27.932,,ZAF,10/02/2021,430,090
APALACHICOLA,1193,29.727,-84.982,,USA,26/01/2024,940,043
MURORAN,1194,42.350,140.950,,JPN,20/04/2009,641,029
CAPE TOWN (GRANGER BAY),1195,-33.905,18.435,,ZAF,11/02/2021,430,045
SOUTH BEACH,1196,44.625,-124.042,157,USA,10/01/2024,823,016
FYNSHAV,1197,54.995,9.987,,DNK,27/11/2018,130,062
STE-ANNE-DES-MONTS,1199,49.133,-66.483,,CAN,03/06/1996,970,057
SE-LAHA,1200,70.150,72.567,,RUS,06/01/2003,030,331
CHAMPERICO,1201,14.283,-91.917,,GTM,01/01/1980,832,006
GINGERVILLE CREEK,1203,38.958,-76.555,,USA,01/01/1980,960,079
KURE IV,1209,34.241,132.550,,JPN,03/02/2023,643,043
TOKUYAMA II,1210,34.041,131.803,,JPN,03/02/2023,643,052
SPIKARNA,1211,62.363,17.531,,SWE,09/06/2023,050,183
UWAJIMA II,1212,33.227,132.551,,JPN,04/03/2024,644,022
RIVIERE-AU-RENARD,1213,49.000,-64.383,,CAN,16/02/2024,970,054
ILFRACOMBE,1214,51.211,-4.112,,GBR,02/02/2024,170,166
PORTPATRICK,1215,54.843,-5.120,,GBR,02/07/2012,170,236
SPRING BAY,1216,-42.546,147.933,56,AUS,01/02/2024,680,199
MAJURO-B,1217,7.100,171.367,112,MHL,21/03/2001,720,016
BAIE COMEAU,1218,49.233,-68.133,,CAN,25/10/1993,970,098
TADOUSSAC,1219,48.133,-69.717,,CAN,25/10/1993,970,096
TOKYO II,1222,35.650,139.767,,JPN,12/09/1997,642,071
ST-JEAN-PORT-JOLI,1223,47.217,-70.283,,CAN,01/01/1980,970,066
WALTON ON THE NAZE,1224,51.850,1.267,,GBR,20/02/1991,170,074
EVANS HEAD,1229,-29.117,153.433,,AUS,01/01/1980,680,093
DIGBY,1230,44.633,-65.750,,CAN,01/01/1980,970,005
SOUDHAS,1232,35.487,24.082,,GRC,20/02/2024,290,097
LEROS,1233,37.130,26.848,,GRC,20/02/2024,290,091
SIROS,1234,37.440,24.946,,GRC,20/02/2024,290,081
GOTEBORG - TORSHAMNEN,1236,57.685,11.791,233,SWE,13/06/2023,050,032
KHALKIS NORTH,1237,38.472,23.593,,GRC,20/02/2024,290,034
ALEXANDROUPOLIS,1238,40.844,25.878,,GRC,20/02/2024,290,065
LEVKAS,1239,38.835,20.712,,GRC,20/02/2024,290,004
KATAKOLON,1240,37.645,21.320,,GRC,20/02/2024,290,017
RORVIK,1241,64.859,11.230,234,NOR,18/01/2024,040,136
BAMFIELD,1242,48.850,-125.133,,CAN,16/02/2024,822,108
RHODOS,1243,36.442,28.236,,GRC,07/08/2013,290,110
ST-JOSEPH-DE-LA-RIVE,1244,47.450,-70.367,,CAN,16/02/2024,970,092
NEW  WESTMINSTER,1245,49.200,-122.917,,CAN,16/02/2024,822,075
HAY POINT,1246,-21.283,149.300,,AUS,01/02/2024,680,606
PORT TUDY,1247,47.644,-3.446,,FRA,30/01/2024,190,103
SULTAN SHOAL,1248,1.233,103.650,,SGP,24/04/2023,555,021
MORMUGAO,1249,15.417,73.800,281,IND,23/11/2023,500,065
PATRAI,1250,38.417,21.729,,GRC,20/02/2024,290,014
YAP B,1251,9.517,138.133,119,FSM,07/03/2023,710,011
MALAKAL-B,1252,7.333,134.467,120,PLW,28/01/2020,711,021
RIKITEA,1253,-23.122,-134.967,138,PYF,28/01/2020,808,001
MADANG,1254,-5.217,145.800,,PNG,03/07/2013,670,061
STEVESTON,1255,49.117,-123.183,,CAN,19/04/2000,822,083
VADSO,1257,70.067,29.750,,NOR,18/10/1994,040,005
TANGACHCHIMADAM,1258,9.283,79.250,,IND,21/03/1990,500,085
BOUTILIER POINT,1259,44.667,-63.967,,CAN,07/06/1989,970,009
MANFREDONIA,1262,41.617,15.917,,ITA,01/01/1980,270,019
OMAEZAKI II,1263,34.608,138.222,,JPN,04/03/2024,642,124
OGA,1264,39.942,139.706,,JPN,04/03/2024,647,096
AKUNE,1265,32.018,130.191,,JPN,04/03/2024,645,045
HACHINOHE II,1266,40.532,141.528,,JPN,22/02/2012,642,002
HONNINGSVAG,1267,70.980,25.973,,NOR,18/01/2024,040,015
BOOBY ISLAND,1268,-10.603,141.910,61,AUS,01/02/2024,680,025
CHARLESTON II,1269,43.345,-124.322,,USA,10/01/2024,823,019
HALDIA,1270,22.033,88.100,,IND,23/11/2023,500,110
USHUAIA II,1271,-54.817,-68.217,181,ARG,12/11/2007,860,002
EASTER ISLAND-E,1272,-27.155,-109.473,137,CHL,07/04/2021,810,003
KARWAR,1273,14.800,74.117,,IND,23/11/2023,500,067
CALLAO 2,1274,-12.050,-77.150,173,PER,28/01/2020,848,032
JURONG,1275,1.300,103.717,,SGP,15/08/2005,555,031
PUERTO BOLIVAR,1277,-3.267,-80.000,,ECU,16/06/1992,845,041
WEST ST. MODESTE,1278,51.600,-56.700,,CAN,25/10/1993,970,132
ROCKLAND,1279,44.105,-69.102,,USA,22/06/1990,960,186
SAVAGE COVE,1280,51.333,-56.700,,CAN,07/06/1989,970,103
BUCKIE,1281,57.667,-2.967,,GBR,07/04/1992,170,009
CAPE PARRY,1282,70.150,-124.667,,CAN,19/03/2013,970,201
RIVIERE-DU-LOUP,1284,47.850,-69.567,,CAN,07/06/1989,970,064
GARIBALDI,1285,45.553,-123.918,,USA,22/05/1987,823,014
OITA II,1293,33.266,131.687,,JPN,03/02/2023,645,009
LE CONQUET,1294,48.359,-4.781,,FRA,30/01/2024,190,089
CAMBRIDGE II,1295,38.573,-76.068,,USA,10/01/2024,960,073
URAKAWA II,1296,42.167,142.767,,JPN,26/11/2015,641,027
CABO DE SAN ANTONIO,1297,21.900,-84.900,214,CUB,20/09/2023,930,071
NORTH SYDNEY,1299,46.217,-60.250,,CAN,16/02/2024,970,016
INCE POINT,1300,-10.508,142.310,,AUS,01/02/2024,680,601
CONCARNEAU,1301,47.874,-3.907,,FRA,30/01/2024,190,096
ACAJUTLA 2,1302,13.583,-89.833,182,SLV,28/01/2020,833,012
LAE,1303,-6.750,147.000,,PNG,03/07/2013,670,002
WEWAK,1304,-3.550,143.633,,PNG,03/07/2013,670,051
HAGI,1306,34.433,131.417,,JPN,03/02/1993,647,015
NAGAPATTINAM,1308,10.767,79.850,,IND,13/03/2023,500,087
POINTE-DU-CHENE,1309,46.250,-64.533,,CAN,07/06/1989,970,036
ABIDJAN,1313,5.250,-4.000,257,CIV,01/01/1980,405,001
KARIYA,1318,33.473,129.849,,JPN,04/03/2024,645,075
KURE I,1320,33.334,133.243,,JPN,04/03/2024,644,004
ARGENTIA,1321,47.300,-53.983,,CAN,16/02/2024,970,116
SEPT-ILES,1322,50.200,-66.400,,CAN,16/02/2024,970,099
CAMPBELL RIVER,1323,50.017,-125.233,,CAN,16/02/2024,822,027
POHANG,1324,36.047,129.384,,KOR,12/06/2023,620,056
PORT TOWNSEND,1325,48.112,-122.757,,USA,26/01/2024,823,012
SHEDIAC BAY,1326,46.250,-64.533,,CAN,16/02/2024,970,035
SUVA-A,1327,-18.136,178.423,122,FJI,19/08/2010,742,012
CAPE LAMBERT,1328,-20.588,117.186,,AUS,02/10/2018,680,491
KANTON ISLAND-B,1329,-2.817,-171.717,145,KIR,28/01/2020,750,012
RUSTICO,1330,46.467,-63.283,,CAN,01/06/1998,970,033
POINT TUPPER,1332,45.600,-61.367,,CAN,03/06/1996,970,014
NEWCASTLE II,1335,-32.917,151.800,,AUS,04/11/1987,680,132
LISBON,1336,38.700,-9.133,,PRT,30/11/1988,210,023
INDIAN RIVER INLET,1337,38.610,-75.070,,USA,02/10/1987,960,084
MATAPEAKE,1338,38.957,-76.355,,USA,02/10/1987,960,082
TSAWWASSEN,1341,49.000,-123.133,,CAN,01/01/1980,822,085
ITO II,1343,34.896,139.133,,JPN,04/03/2024,642,112
OGI,1344,37.815,138.281,,JPN,04/03/2024,647,086
SOMA,1345,37.831,140.962,,JPN,04/03/2024,642,036
KAMAISI II,1346,39.273,141.889,,JPN,03/02/2023,642,017
ROSCOFF,1347,48.718,-3.966,,FRA,30/01/2024,190,086
LOWER ESCUMINAC,1349,47.083,-64.883,,CAN,16/02/2024,970,040
"NIKISKI,  ALASKA",1350,60.683,-151.397,,USA,10/01/2024,821,013
RAFFLES LIGHT HOUSE,1351,1.167,103.750,,SGP,24/04/2023,555,011
MONTEREY,1352,36.605,-121.887,,USA,10/01/2024,823,036
VALDEZ,1353,61.125,-146.362,,USA,16/01/2024,821,019
"TOKE POINT, WILLIPA BAY, WA",1354,46.707,-123.967,,USA,16/01/2024,823,009
CABO SAN LUCAS,1355,22.883,-109.900,161,MEX,31/07/2014,830,020
KAOHSIUNG II,1356,22.533,120.317,,TWN,28/04/1998,612,012
BAHIA DE LOS ANGELES,1357,28.967,-113.550,,MEX,03/12/1997,830,025
DALHOUSIE,1358,48.067,-66.383,,CAN,03/06/1996,970,046
FANNING-B,1361,3.900,-159.383,,KIR,18/05/1994,770,012
OFUNATO II,1364,39.020,141.753,87,JPN,04/03/2024,642,022
SOKCHO,1365,38.207,128.594,,KOR,12/06/2023,620,071
TSIM BEI TSUI,1366,22.487,114.014,,HKG,12/06/2023,611,017
WHYALLA III,1367,-33.013,137.590,,AUS,01/02/2024,680,410
GOODS ISLAND,1368,-10.562,142.152,,AUS,01/02/2024,680,602
GANGRA,1369,21.950,88.017,,IND,15/04/2009,500,109
POHNPEI-B,1370,6.983,158.233,115,FSM,14/06/2018,710,031
CHRISTMAS ISLAND II,1371,1.983,-157.483,146,KIR,28/01/2020,770,022
FRENCH FRIGATE SHOALS,1372,23.867,-166.283,107,USA,14/10/2013,760,016
HONIARA II,1373,-9.433,159.950,66,SLB,07/11/1996,734,002
NAURU,1374,-0.533,166.900,114,NRU,14/02/1996,715,001
"TARAWA-A,BETIO",1381,1.367,172.933,113,KIR,29/08/1990,730,006
ANTIFER,1383,49.650,0.150,,FRA,01/01/1980,190,046
KUCHINOTSU,1386,32.605,130.195,,JPN,05/03/2024,645,062
MAIZURU II,1387,35.477,135.387,,JPN,05/03/2024,647,062
OKINAWA,1388,26.179,127.824,,JPN,05/03/2024,646,021
TOYAMA,1389,36.762,137.225,325,JPN,05/03/2024,647,068
MUROTOMISAKI,1390,33.266,134.164,,JPN,05/03/2024,644,061
CHICHIJIMA,1391,27.083,142.183,103,JPN,05/03/2024,648,001
PORT-ALFRED,1392,48.333,-70.867,,CAN,16/02/2024,970,095
CHARLOTTE AMALIE,1393,18.335,-64.920,,VIR,10/01/2024,939,001
POINT REYES,1394,37.995,-122.977,,USA,10/01/2024,823,030
OKHA,1395,22.467,69.083,,IND,24/02/2023,500,014
"PAPEETE-B, FARE UTE POINT, SOC.IS.",1397,-17.533,-149.573,140,PYF,20/10/2022,780,011
BYKOV MYS (BYKOV MYS),1399,72.000,129.117,,RUS,14/08/2019,030,449
AVEIRO,1402,40.650,-8.750,,PRT,06/11/1998,210,013
TANGGU,1403,39.000,117.717,,CHN,21/07/1995,610,037
SHIJIUSUO,1404,35.383,119.550,,CHN,17/01/2012,610,034
LIANYUNGANG,1405,34.750,119.450,,CHN,17/01/2012,610,033
SHANWEI,1406,22.750,115.350,,CHN,17/01/2012,610,006
DONGFANG,1407,19.100,108.617,,CHN,17/01/2012,610,008
BEIHAI,1408,21.483,109.083,,CHN,17/01/2012,610,001
LORETO,1410,26.017,-111.367,,MEX,29/01/1992,830,023
ISHIGAKI,1411,24.333,124.167,,JPN,15/12/1989,646,041
GUADALUPE ISLAND II,1413,28.883,-118.300,160,MEX,29/01/1992,830,012
WALLAROO II,1420,-33.926,137.615,,AUS,01/02/2024,680,382
NY-ALESUND,1421,78.929,11.938,345,SJM,18/01/2024,025,021
NORTH SOUND,1422,19.300,-81.317,,CYM,18/06/2007,931,001
MANGALORE (PANAMBURU),1423,12.917,74.800,,IND,09/02/2023,500,070
KEY COLONY BEACH,1424,24.718,-81.017,,USA,06/03/2000,940,092
SETROIA,1425,38.500,-8.900,,PRT,09/11/1998,210,026
SOUTH SOUND,1426,19.267,-81.383,,CYM,20/08/1997,931,011
SALAMANDER,1427,-33.067,18.000,,ZAF,10/02/2021,430,037
HAIKOU,1428,20.017,110.283,,CHN,17/01/2012,610,007
ISLA DE CEDROS,1430,28.100,-115.183,,MEX,29/01/1992,830,014
SOUTHPORT,1431,33.915,-78.018,,USA,22/06/1990,960,056
TAGO,1437,34.807,138.764,,JPN,05/03/2024,642,119
YAIZU,1438,34.871,138.327,,JPN,05/03/2024,642,122
KAMINATO II (HATIZYO SIMA),1440,33.130,139.805,,JPN,03/02/2023,642,097
KHALKIS SOUTH,1441,38.461,23.589,,GRC,20/02/2024,290,033
HANASAKI II,1442,43.278,145.568,,JPN,05/03/2024,641,012
RICHARDS BAY,1443,-28.812,32.079,,ZAF,10/02/2021,430,095
SPRINGMAID PIER,1444,33.655,-78.918,,USA,10/01/2024,960,050
GADEOKDO,1445,35.025,128.811,,KOR,12/06/2023,620,043
TONGYEONG,1446,34.828,128.435,,KOR,12/06/2023,620,038
"LIME TREE BAY, ST CROIX",1447,17.693,-64.753,,VIR,16/01/2024,939,011
KOSEROW,1448,54.060,14.001,,DEU,14/04/2023,120,001
QUINHON,1449,13.767,109.250,75,VNM,17/11/2015,605,041
PENRHYN,1450,-9.017,-158.067,143,COK,28/01/2020,775,001
HIRON POINT,1451,21.783,89.467,,BGD,08/06/2005,510,003
FUNAFUTI,1452,-8.533,179.217,121,TUV,21/03/2001,732,011
KHEPUPARA,1454,21.833,89.833,,BGD,17/10/2002,510,037
ALMERIA,1455,36.832,-2.485,,ESP,11/11/1998,220,041
SINES,1456,37.950,-8.883,,PRT,02/03/2023,210,028
BAHIA SAN QUINTIN,1457,30.483,-115.983,,MEX,29/12/1994,830,005
CARTAGENA,1460,37.597,-0.974,,ESP,07/04/1989,220,046
EASTER ISLAND-D,1462,-27.150,-109.450,137,CHL,11/09/1990,810,002
NICE,1468,43.696,7.286,,FRA,30/01/2024,230,081
PORT VENDRES,1469,42.520,3.107,,FRA,30/01/2024,230,006
MONBETU II,1470,44.350,143.367,,JPN,20/02/2013,641,002
PORT DOUGLAS 2,1471,-16.483,145.467,,AUS,19/05/2015,680,037
SANTA CRUZ,1472,-0.750,-90.317,,ECU,07/03/2023,845,031
KAPINGAMARANGI,1473,1.100,154.783,117,FSM,29/01/2020,710,026
SAIPAN,1474,15.233,145.750,118,MNP,29/01/2020,700,011
DANANG,1475,16.100,108.217,,VNM,17/11/2015,605,051
COX'S BAZAAR,1476,21.450,91.833,,BGD,17/06/2013,510,041
VIANA,1482,41.683,-8.833,,PRT,09/11/1998,210,011
NAGOYA II,1488,35.091,136.881,,JPN,05/03/2024,642,132
HEUKSANDO,1489,34.684,125.436,,KOR,12/06/2023,620,028
ULLEUNG,1490,37.491,130.914,,KOR,12/06/2023,620,059
TOBERMORY,1491,56.623,-6.064,,GBR,02/02/2024,170,246
CAPE FERGUSON,1492,-19.277,147.058,,AUS,01/02/2024,680,054
MOOLOOLABA 2,1493,-26.683,153.133,,AUS,01/02/2024,680,605
MINA SULMAN,1494,26.233,50.600,,BHR,17/01/2012,482,019
VUNGTAU,1495,10.333,107.067,,VNM,17/11/2015,605,021
CHARCHANGA,1496,22.217,91.050,36,BGD,17/06/2013,510,008
NAIBA,1497,70.850,130.750,,RUS,14/08/2019,030,460
POINTE DES GALETS,1501,-20.935,55.285,17,REU,30/01/2024,451,001
WHITBY,1505,54.490,-0.615,,GBR,02/02/2024,170,056
PORT STANVAC,1506,-35.109,138.467,,AUS,13/10/2011,680,298
SOUTH PASS,1511,28.990,-89.140,,USA,14/11/2017,940,034
LAOHUTAN,1513,38.867,121.683,79,CHN,20/04/1998,610,045
NASE III,1522,28.500,129.500,,JPN,03/02/2023,646,003
MAIZURU III,1523,35.450,135.317,,JPN,21/04/2009,647,063
CUTLER II,1524,44.642,-67.297,,USA,23/06/2011,960,196
LEITH II,1526,55.990,-3.182,,GBR,02/02/2024,170,032
GUNSAN (OUTER PORT),1527,35.976,126.563,,KOR,12/06/2023,620,022
COCO SOLO,1530,9.367,-79.883,208,PAN,21/08/1997,904,006
KEPPEL HARBOUR,1534,1.267,103.817,44,SGP,09/06/1992,555,003
BEAUFORT,1537,32.433,-80.667,,USA,04/11/1988,960,036
DEPOE BAY,1541,44.810,-124.057,,USA,27/11/1987,823,015
MAR DE AJO,1542,-36.700,-56.667,,ARG,02/03/1988,860,124
CHOSHI-GYOKO,1544,35.744,140.858,,JPN,12/08/2020,642,050
TOKYO III,1545,35.649,139.770,,JPN,05/03/2024,642,069
GEOMUNDO,1546,34.028,127.309,,KOR,12/06/2023,620,035
PORTLAND,1547,-38.343,141.613,55,AUS,01/02/2024,680,231
NEWHAVEN,1548,50.782,0.057,,GBR,02/02/2024,170,119
KING BAY,1549,-20.624,116.749,,AUS,16/03/2020,680,486
PORT GILES,1550,-35.022,137.768,,AUS,01/02/2024,680,340
ROOMPOT BUITEN,1551,51.620,3.682,,NLD,19/07/2023,150,090
NUKU HIVA,1555,-8.933,-140.083,142,PYF,30/01/2024,805,011
KOCHI III,1567,33.499,133.569,,JPN,05/03/2024,644,005
WANDO,1568,34.315,126.760,,KOR,12/06/2023,620,034
SHUTE HARBOUR 2,1569,-20.283,148.783,,AUS,28/01/2020,680,058
PUERTO ARMUELLES B,1571,8.267,-82.867,,PAN,05/06/2014,840,002
VIS-CESKA VILA,1574,43.067,16.200,,HRV,03/02/1993,280,040
GAZENICA,1577,44.083,15.267,,HRV,31/05/1990,280,014
ZLARIN,1578,43.700,15.667,,HRV,31/05/1990,280,017
"TARAWA-B,BAIRIKI",1579,1.333,173.017,113,KIR,15/11/1990,730,007
HAMADA II,1585,34.897,132.066,326,JPN,05/03/2024,647,023
IZUHARA II,1586,34.198,129.292,,JPN,03/02/2023,645,082
TAPPI,1587,41.243,140.381,,JPN,03/02/2023,641,033
CHUJADO,1588,33.962,126.300,,KOR,12/06/2023,620,039
TANJUNG GELANG,1589,3.975,103.430,,MYS,11/09/2019,550,014
TAURANGA (SALISBURY WHARF),1590,-37.641,176.181,,NZL,18/09/2023,690,006
PELABUHAN KELANG,1591,3.050,101.358,,MYS,11/09/2019,550,007
CENDERING,1592,5.265,103.187,293,MYS,11/09/2019,550,017
TANJUNG KELING,1593,2.215,102.153,,MYS,11/09/2019,550,009
LUMUT,1594,4.240,100.613,43,MYS,11/09/2019,550,005
PULAU PINANG,1595,5.422,100.347,,MYS,11/09/2019,550,003
YOSIOKA,1596,41.450,140.250,,JPN,20/04/2009,641,034
RIMOUSKI,1597,48.483,-68.517,,CAN,16/02/2024,970,062
ERDEK,1598,40.383,27.850,,TUR,09/07/2013,310,038
ZANZIBAR,1600,-6.150,39.183,297,TZA,29/01/2020,460,016
PUERTO SOBERANIA,1603,-62.483,-59.633,189,ATA,10/10/2022,999,005
NORTH SALAMINOS,1604,37.980,23.542,,GRC,07/08/2013,290,030
ESASHI,1605,41.867,140.133,,JPN,24/08/1998,641,035
ALOTAU,1607,-10.317,150.450,63,PNG,03/07/2013,670,006
KAVIENG,1608,-2.583,150.800,,PNG,03/07/2013,670,031
MANUS ISLAND,1609,-2.017,147.267,,PNG,03/07/2013,670,041
PORT MORESBY II,1610,-9.483,147.133,,PNG,26/03/2013,670,012
GISBORNE,1613,-38.675,178.022,,NZL,18/09/2023,690,008
WANGANUI,1621,-39.945,174.993,,NZL,19/05/1989,690,077
SEOGWIPO,1627,33.240,126.562,,KOR,12/06/2023,620,032
WIDO,1628,35.618,126.302,,KOR,12/06/2023,620,024
MOURILYAN HARBOUR,1629,-17.583,146.083,,AUS,01/02/2024,680,043
LUCINDA,1630,-18.517,146.383,,AUS,01/02/2024,680,047
ONSLOW,1631,-21.650,115.132,,AUS,01/02/2024,680,483
CROMER,1632,52.934,1.302,,GBR,06/06/2018,170,066
CHERRY POINT,1633,48.863,-122.757,,USA,10/01/2024,823,005
"SAND POINT, POPOF IS., AK",1634,55.337,-160.502,100,USA,10/01/2024,821,006
CHESAPEAKE BAY BR. TUN.,1635,36.967,-76.113,,USA,14/02/2018,960,070
DUCK PIER OUTSIDE,1636,36.183,-75.747,219,USA,10/01/2024,960,063
"BERGEN POINT, STATEN IS.",1637,40.637,-74.142,,USA,16/01/2024,960,132
CLEARWATER BEACH,1638,27.978,-82.832,,USA,10/01/2024,940,060
"N. SPIT, HUMBOLDT BAY",1639,40.767,-124.217,,USA,16/01/2024,823,024
PORT ORFORD,1640,42.738,-124.498,,USA,10/01/2024,823,020
"PANAMA CITY, ST.ANDREWS BAY, FL",1641,30.152,-85.667,,USA,26/01/2024,940,042
DZAOUDZI,1642,-12.782,45.258,96,MYT,30/01/2024,438,001
PORT CHALMERS,1643,-45.815,170.624,,NZL,18/09/2023,690,028
JUAN FERNANDEZ-C,1644,-33.636,-78.830,176,CHL,07/05/2024,850,039
BALTRA-B,1645,-0.433,-90.283,169,ECU,29/01/2020,845,034
SETTLEMENT POINT,1646,26.710,-78.997,211,BHS,10/07/2002,941,001
"SOUTH ISLAND PLANTATION, WINYAH BAY",1651,33.235,-79.203,,USA,01/10/1996,960,044
TRENTON,1654,40.188,-74.755,,USA,16/07/1993,960,088
SAN MATEO,1663,37.583,-122.250,,USA,21/06/1990,823,034
PALM BEACH,1669,26.700,-80.050,,USA,05/07/1990,960,005
"SHELL POINT, WALKER CREEK",1670,30.060,-84.290,,USA,05/07/1990,940,049
ISHIGAKI II,1671,24.332,124.164,,JPN,05/03/2024,646,042
RODRIGUES IS,1672,-19.667,63.417,19,MUS,15/05/2023,450,021
PORT LOUIS II,1673,-20.150,57.500,18,MUS,15/05/2023,450,012
QUARRY BAY,1674,22.291,114.213,77,HKG,12/06/2023,611,010
BORYEONG,1675,36.406,126.486,,KOR,12/06/2023,620,017
PULAU LANGKAWI,1676,6.431,99.764,,MYS,11/09/2019,550,002
KUKUP,1677,1.325,103.443,,MYS,11/09/2019,550,010
PULAU TIOMAN,1678,2.807,104.140,,MYS,11/09/2019,550,013
MENTES/IZMIR,1679,38.433,26.717,,TUR,09/07/2013,310,042
BODRUM II,1680,37.033,27.417,,TUR,09/07/2013,310,046
ANTALYA II,1681,36.833,30.617,,TUR,09/07/2013,310,052
LOK ON PAI,1685,22.367,114.000,,HKG,16/05/2000,611,019
PORT SUDAN,1690,19.633,37.117,,SDN,27/02/1995,477,001
RAFINA,1695,38.033,24.000,,GRC,28/11/1994,290,032
LAKE WORTH PIER,1696,26.612,-80.033,,USA,10/01/2024,960,004
WAGLAN ISLAND,1698,22.183,114.303,,HKG,22/05/2019,611,007
ANHEUNG,1699,36.674,126.132,,KOR,17/07/2023,620,014
MILFORD HAVEN (HAKIN),1700,51.707,-5.052,,GBR,02/02/2024,170,182
VACA KEY,1701,24.712,-81.105,,USA,16/01/2024,940,089
TANJUNG SEDILI,1702,1.932,104.115,,MYS,11/09/2019,550,012
GETING,1703,6.226,102.107,,MYS,09/07/2019,550,021
GOLD COAST SEAWAY 2,1704,-27.950,153.417,,AUS,01/02/2024,680,604
PORT IRENE,1705,18.383,122.100,,PHL,13/06/2023,660,003
SUCURAJ,1706,43.133,17.200,,HRV,12/05/2008,280,046
GAN II,1707,-0.683,73.150,27,MDV,29/01/2020,454,002
SURIGAO,1708,9.783,125.500,,PHL,13/06/2023,660,151
BITUNG II,1709,1.433,125.200,69,IDN,29/01/2020,580,012
ARRECIFE-D,1710,28.966,-13.538,,ESP,15/05/2002,370,004
SAN JOSE,1711,12.333,121.083,,PHL,13/06/2023,660,002
TURKEY POINT,1714,29.915,-84.512,,USA,01/10/1996,940,045
BAY WAVELAND YACHT CLUB,1715,30.325,-89.325,,USA,01/10/1996,940,036
MUSCAT,1716,23.633,58.567,,OMN,15/10/2013,487,021
HAULOVER PIER,1717,25.903,-80.120,,USA,24/11/1994,960,002
UBLI,1718,42.750,16.833,,HRV,03/02/1993,280,056
KALININGRAD,1719,54.700,20.483,,RUS,28/06/2023,080,179
"BUCKSPORT, WACCAMAW R.",1720,33.647,-79.095,,USA,16/07/1993,960,048
GENERAL DYNAMICS PIER,1721,33.017,-79.917,,USA,16/07/1993,960,042
NAN SHA,1730,9.550,112.880,,CHN,28/03/2023,610,003
FISHGUARD II,1731,52.013,-4.984,,GBR,15/03/2022,170,184
MUMBLES,1732,51.570,-3.975,,GBR,06/05/2015,170,179
KOTA KINABALU,1733,5.983,116.067,,MYS,11/09/2019,665,031
TAWAU,1734,4.233,117.883,,MYS,11/09/2019,665,061
MARSAXLOKK   (FORMALLY VALLETTA),1735,35.820,14.533,,MLT,08/06/2023,265,001
MADEIRA,1736,-2.567,-44.383,200,BRA,14/11/2017,874,155
"TARAWA-C,BETIO",1739,1.367,172.933,113,KIR,31/12/1998,730,008
DIEGO GARCIA-C,1740,-7.283,72.400,26,IOT,17/10/2002,453,003
XI SHA,1745,16.833,112.333,,CHN,28/03/2023,610,004
TANJONG PAGAR,1746,1.267,103.850,44,SGP,04/04/2024,555,002
LES SABLES D OLONNE,1747,46.498,-1.794,,FRA,30/01/2024,190,116
TRONDHEIM 2,1748,63.436,10.392,,NOR,18/01/2024,040,142
TURTLE HEAD,1749,-10.522,142.212,,AUS,05/02/2024,680,028
NAPIER,1750,-39.476,176.920,,NZL,18/09/2023,690,009
SAN FELIX,1751,-26.292,-80.109,177,CHL,07/05/2024,850,016
SIBOLGA II,1752,1.750,98.767,,IDN,29/01/2020,560,022
"MALE-B, HULULE",1753,4.183,73.533,28,MDV,29/01/2020,454,011
SALALAH,1754,16.933,54.000,4,OMN,29/01/2020,487,001
HINKLEY POINT,1758,51.211,-3.131,,GBR,09/03/2021,170,168
VIKER,1759,59.036,10.950,,NOR,18/01/2024,040,341
ROSSLYN BAY,1760,-23.161,150.790,,AUS,01/02/2024,680,069
HILLARYS,1761,-31.826,115.739,,AUS,01/02/2024,680,472
EXMOUTH,1762,-21.955,114.141,,AUS,01/02/2024,680,482
CAPE ROBERTS ANTARCTICA,1763,-77.034,163.191,,ATA,27/09/2010,999,070
L'ESTARTIT,1764,42.054,3.206,,ESP,10/05/2023,220,081
PORTO GRANDE (ST. VINCENT) 2,1769,16.883,-25.000,,CPV,09/11/1998,380,002
BARMOUTH,1771,52.719,-4.045,,GBR,31/05/2016,170,187
ISLAY (PORT ELLEN),1772,55.628,-6.190,,GBR,14/05/2012,170,244
WEYMOUTH,1773,50.609,-2.448,,GBR,02/02/2023,170,150
LIVERPOOL (GLADSTONE DOCK),1774,53.450,-3.018,,GBR,02/02/2024,170,214
KINLOCHBERVIE,1775,58.457,-5.050,,GBR,02/02/2024,170,255
ANABAR,1780,73.217,113.500,,RUS,11/08/2021,030,425
NAOS ISLAND 2,1783,8.918,-79.533,,PAN,07/10/1998,840,022
POINTE-A-PITRE,1784,16.224,-61.531,,GLP,30/01/2024,914,001
DIEGO RAMIREZ,1785,-56.500,-68.717,,CHL,25/02/2004,850,091
TAKAMATSU II,1789,34.351,134.057,,JPN,05/03/2024,644,042
KOBE II,1790,34.682,135.190,,JPN,05/03/2024,643,025
SUSA,1791,34.628,131.604,,JPN,05/03/2024,647,018
KO MATTAPHON,1792,10.450,99.250,,THA,15/09/2023,600,011
PORT ERIN,1793,54.085,-4.768,,IMN,02/02/2024,170,233
WORKINGTON,1794,54.651,-3.567,,GBR,02/02/2024,170,228
ST HELIER (JERSEY) 2,1795,49.183,-2.117,,JEY,02/02/2024,180,002
STANLEY II,1796,-51.692,-57.821,305,FLK,13/05/2022,863,002
HADERA,1797,32.470,34.863,80,ISR,07/05/2024,320,016
BECANCOUR,1798,46.400,-72.383,,CAN,16/02/2024,970,077
WINTER HARBOUR,1799,50.517,-128.033,,CAN,16/02/2024,822,124
"NOME,  ALASKA",1800,64.500,-165.430,74,USA,10/01/2024,821,003
BOUCAU,1801,43.527,-1.515,,FRA,30/01/2024,190,139
LAS PALMAS D,1802,28.141,-15.412,251,ESP,11/07/2023,370,046
TENERIFE,1803,28.477,-16.241,,ESP,11/07/2023,370,032
BETIO,1804,1.365,172.933,113,KIR,05/02/2024,730,009
LAUTOKA,1805,-17.605,177.438,,FJI,05/02/2024,742,021
BILBAO,1806,43.352,-3.045,,ESP,11/07/2023,200,006
SANTANDER III,1807,43.461,-3.791,,ESP,11/07/2023,200,013
LA CORUÑA III,1808,43.357,-8.389,243,ESP,11/07/2023,200,032
BONANZA,1809,36.802,-6.338,,ESP,11/07/2023,220,008
MALAGA II,1810,36.712,-4.417,,ESP,11/07/2023,220,032
BARCELONA,1811,41.342,2.166,,ESP,11/07/2023,220,061
TEJN,1812,55.250,14.838,,DNK,27/11/2018,130,016
VALENCIA,1813,39.442,-0.311,,ESP,11/07/2023,220,056
DAKAR 2,1816,14.683,-17.417,253,SEN,29/01/2020,390,002
LUKA KOPER,1817,45.548,13.725,,SVN,17/02/2023,279,003
MANZANILLO 2,1818,19.067,-104.300,163,MEX,28/02/2018,830,072
MIRI,1819,4.401,113.974,,MYS,04/05/2017,663,001
LITTLE CORNWALLIS ISLAND,1822,75.383,-96.950,,CAN,04/06/1996,970,156
NANOOSE BAY,1825,49.267,-124.133,,CAN,04/06/1996,822,033
SHIMONOSEKI III,1830,33.925,130.928,,JPN,06/02/2014,647,010
ENGLISH BAY (ASCENSION ISLAND),1831,-7.893,-14.386,263,SHN,02/10/2014,402,001
NEWPORT,1832,51.550,-2.987,,GBR,02/02/2024,170,173
BINTULU,1833,3.262,113.064,,MYS,11/09/2019,663,011
SANDAKAN,1834,5.810,118.067,,MYS,11/09/2019,665,045
SABINE PASS NORTH,1835,29.728,-93.870,,USA,02/02/2021,940,010
LORNE,1836,-38.547,143.989,,AUS,01/02/2024,680,226
MAJURO-C,1838,7.106,171.373,112,MHL,05/02/2024,720,017
FUNAFUTI B,1839,-8.502,179.195,121,TUV,05/02/2024,732,012
APIA B,1840,-13.827,-171.761,,WSM,05/02/2024,746,002
PORT VILA B,1841,-17.755,168.308,348,VUT,05/02/2024,741,002
NUKU'ALOFA B,1842,-21.137,-175.181,125,TON,05/02/2024,744,002
RAROTONGA B,1843,-21.205,-159.785,139,COK,05/02/2024,785,006
NAURU-B,1844,-0.529,166.910,114,NRU,05/02/2024,715,002
JAMESTOWN LANDING STEPS,1845,-15.921,-5.718,264,SHN,03/06/2014,425,001
POINT LA RUE,1846,-4.667,55.533,339,SYC,29/01/2020,442,007
KERGUELEN,1849,-49.352,70.256,23,ATF,30/01/2024,434,001
USHUAIA III,1850,-54.817,-68.217,181,ARG,02/03/2023,860,003
LLANDUDNO,1854,53.332,-3.825,,GBR,02/02/2024,170,196
ST. MARYS,1855,49.918,-6.317,,GBR,15/03/2022,170,163
BANGOR,1856,54.665,-5.669,,GBR,28/06/2017,170,281
"PRUDHOE BAY,  ALASKA",1857,70.400,-148.527,151,USA,16/01/2024,821,002
"VIRGINIA KEY, FL",1858,25.730,-80.162,332,USA,10/01/2024,960,008
ZADAR,1859,44.123,15.235,,HRV,11/07/2019,280,013
LOMBRUM,1860,-2.042,147.374,331,PNG,05/02/2024,670,043
HONIARA-B,1861,-9.429,159.955,66,SLB,05/02/2024,734,004
PORTRUSH,1867,55.207,-6.657,,GBR,02/02/2024,170,261
GIJON II,1871,43.558,-5.698,,ESP,11/07/2023,200,022
KUDAT,1876,6.879,116.844,,MYS,11/09/2019,665,038
LAHAT DATU,1877,5.019,118.346,,MYS,11/09/2019,665,053
BOURNEMOUTH,1878,50.714,-1.875,,GBR,02/07/2014,170,146
LABUAN 2,1879,5.273,115.250,,MYS,11/09/2019,665,002
TEL AVIV,1880,32.083,34.767,,ISR,03/07/2012,320,019
HUELVA,1883,37.132,-6.834,,ESP,11/07/2023,220,005
"WAVELAND, GULF OF MEX., MS",1884,30.282,-89.367,,USA,19/08/2013,940,032
PONTA DELGADA 2,1885,37.733,-25.667,245,PRT,07/03/2023,360,002
CASEY,1886,-66.267,110.517,278,ATA,14/11/2017,999,055
MASIRAH,1887,20.683,58.867,,OMN,29/01/2020,487,012
TAI MIU WAN,1891,22.270,114.289,,HKG,12/06/2023,611,012
PALMA DE MALLORCA,1892,39.552,2.639,,ESP,05/03/2019,225,011
SEJINGKAT,1893,1.583,110.422,,MYS,25/07/2011,663,021
TUAS (WEST JURONG),1894,1.283,103.667,,SGP,21/01/2014,555,035
WEST COAST,1895,1.300,103.767,,SGP,24/04/2023,555,081
WEST TUAS,1896,1.344,103.634,,SGP,24/04/2023,555,091
VILLAGARCIA,1897,42.601,-8.770,,ESP,11/07/2023,200,036
VIGO II,1898,42.243,-8.726,,ESP,11/07/2023,200,042
SHEK PIK,1902,22.220,113.894,,HKG,12/06/2023,611,023
"CORPUS CHRISTI, GULF MEXICO, TX",1903,27.583,-97.217,,USA,10/02/2022,940,015
SKOPELOS,1907,39.124,23.729,,GRC,12/08/2013,290,037
PYEONGTAEK,1908,36.967,126.823,,KOR,12/06/2023,620,012
ISABELA DE SAGUA,1909,22.933,-80.017,,CUB,20/09/2023,930,081
CABO CRUZ,1910,19.833,-77.733,,CUB,20/09/2023,930,091
GIRNE,1911,35.350,33.333,,CYP,12/06/2012,315,010
PALMEIRA,1914,16.750,-22.983,329,CPV,29/01/2020,380,021
PORT BLOC,1915,45.569,-1.062,,FRA,30/01/2024,190,126
ARCACHON-EYRAC,1918,44.665,-1.164,,FRA,19/10/2022,190,140
AMASRA,1919,41.433,32.233,,TUR,24/06/2010,310,026
CHATHAM ISLAND,1920,-43.946,-176.561,128,NZL,17/11/2010,690,401
LE CROUESTY,1921,47.543,-2.895,,FRA,30/01/2024,190,105
ANSAN,1922,37.192,126.647,,KOR,12/06/2023,620,013
HUPO,1923,36.678,129.453,,KOR,12/06/2023,620,060
YEONGGWANG,1924,35.426,126.421,,KOR,12/06/2023,620,026
POHNPEI C,1925,6.981,158.200,115,FSM,05/02/2024,710,032
IGNEDA,1926,41.883,28.017,,TUR,09/07/2013,310,018
TRABZON II,1927,41.000,39.733,,TUR,28/06/2010,310,013
SETTLEMENT POINT A,1928,26.683,-78.983,211,BHS,29/01/2020,941,002
AJACCIO,1929,41.923,8.763,,FRA,30/01/2024,232,001
ULUKHAKTOK (FORMERLY HOLMAN ),1930,70.736,-117.761,,CAN,16/02/2024,970,199
ROTHERA,1931,-67.571,-68.130,342,ATA,11/06/2019,999,103
IBIZA,1932,38.911,1.450,,ESP,11/07/2023,225,021
CORFU ( KERKYRA ),1933,39.628,19.905,,GRC,20/02/2024,290,103
MANZANILLO,1934,20.333,-77.150,,CUB,05/10/2022,930,095
QIKIQTARJUAQ,1935,67.867,-64.117,,CAN,16/02/2024,970,135
MOSULPO,1936,33.214,126.251,,KOR,12/06/2023,620,029
SEONGSANPO,1937,33.475,126.928,,KOR,12/06/2023,620,030
NORTH SALAMINOS II,1938,37.980,23.534,,GRC,12/08/2013,290,029
MOTRIL 2,1940,36.720,-3.524,,ESP,11/07/2023,220,035
SAMOS ISLAND - VATHI,1941,37.755,26.976,,GRC,08/05/2014,290,105
FORT-DE-FRANCE II,1942,14.602,-61.063,338,MTQ,30/01/2024,912,021
VADINAR,1943,22.450,69.683,,IND,12/04/2023,500,013
PLOCE,1945,43.050,17.417,,HRV,11/07/2019,280,075
IQUIQUE,1963,-20.217,-70.167,,CHL,08/04/2013,850,006
SANTANA,1975,-0.050,-51.167,,BRA,18/03/1987,874,171
ERDEMLI,2009,36.567,34.250,,TUR,28/06/2010,310,071
MARMARA EREGLISI,2010,40.967,27.967,,TUR,28/06/2010,310,037
PORTBURY,2011,51.500,-2.728,,GBR,06/06/2019,170,170
ILE ROYALE,2012,5.284,-52.587,202,GUF,30/01/2024,876,011
ISKENDERUN II,2020,36.594,36.181,,TUR,28/06/2010,310,066
CASILDA II,2021,21.753,-79.992,,CUB,25/07/2018,930,065
FUNCHAL B,2024,32.651,-17.118,250,PRT,06/06/2017,365,010
BUGRINO,2025,68.800,49.333,,RUS,20/07/2010,030,010
MYS PIKSHUEVA,2026,69.550,32.433,,RUS,20/07/2010,030,030
POLYARNIY,2027,69.200,33.483,,RUS,20/07/2010,030,020
TERIBERKA,2028,69.200,35.117,,RUS,20/07/2010,030,023
SCOTT BASE,2029,-77.850,166.769,134,ATA,13/12/2017,999,080
CAP AUX MEULES,2031,47.379,-61.857,,CAN,16/02/2024,970,030
BUKOM,2032,1.226,103.778,,SGP,24/04/2023,555,010
TANJONG CHANGI,2033,1.390,103.999,,SGP,24/04/2023,555,020
TANAH MERAH,2034,1.312,103.988,,SGP,24/04/2023,555,030
REAL QUEZON,2035,14.667,121.600,,PHL,13/06/2023,660,024
DAESAN,2039,37.008,126.353,,KOR,17/07/2023,620,015
GEOJEDO,2040,34.801,128.699,,KOR,12/06/2023,620,040
GOHEUNG_BALPO,2041,34.481,127.343,,KOR,10/07/2023,620,031
JANGHANG,2042,36.007,126.688,,KOR,12/06/2023,620,019
JINDO,2043,34.378,126.308,,KOR,12/06/2023,620,037
MASAN,2044,35.210,128.589,,KOR,12/06/2023,620,042
OCHEONGDO,2046,36.117,125.985,,KOR,12/06/2023,620,018
SEVILLA-ESCLUSA,2047,37.331,-5.996,,ESP,17/04/2013,220,010
FUERTEVENTURA,2048,28.493,-13.858,,ESP,11/07/2023,370,006
ARINAGA,2049,27.847,-15.401,,ESP,24/01/2013,370,048
GRANADILLA,2050,28.085,-16.490,,ESP,24/01/2013,370,034
HIERRO,2051,27.784,-17.902,,ESP,11/07/2023,370,009
FERROL 2,2053,43.476,-8.249,,ESP,11/07/2023,200,035
TARIFA 2,2054,36.006,-5.604,,ESP,11/07/2023,220,024
ALGECIRAS 2,2055,36.177,-5.398,,ESP,11/07/2023,220,015
ALMERIA 2,2056,36.830,-2.478,,ESP,11/07/2023,220,044
MELILLA,2057,35.291,-2.929,,ESP,11/07/2023,340,003
GANDIA,2058,38.995,-0.151,,ESP,11/07/2023,220,058
SAGUNTO,2059,39.634,-0.206,,ESP,11/07/2023,220,060
FORMENTERA,2060,38.735,1.419,,ESP,11/07/2023,225,022
PALMA DE MALLORCA 2,2061,39.560,2.637,,ESP,11/07/2023,225,012
MAHON,2062,39.893,4.271,,ESP,11/07/2023,225,016
ALCUDIA,2063,39.835,3.139,,ESP,11/07/2023,225,014
LA PALMA,2064,28.678,-17.768,,ESP,11/07/2023,370,018
LA GOMERA,2065,28.088,-17.108,,ESP,11/07/2023,370,020
ARRECIFE 2,2066,28.972,-13.530,,ESP,11/07/2023,370,010
SOUDHAS II,2067,35.487,24.082,,GRC,28/11/2019,290,099
UBIN,2068,1.419,103.928,,SGP,24/04/2023,555,015
BELLEDUNE,2069,47.900,-65.850,,CAN,16/02/2024,970,042
LOW HEAD,2071,-41.064,146.795,,AUS,01/02/2024,680,194
PORT ALMA,2072,-23.583,150.867,,AUS,01/02/2024,680,070
URANGAN II,2073,-25.300,152.917,,AUS,01/02/2024,680,600
BOWEN II,2074,-20.017,148.250,,AUS,01/02/2024,680,050
BARI,2075,41.140,16.866,,ITA,28/09/2023,270,017
CARLOFORTE,2076,39.148,8.309,,ITA,18/10/2016,240,015
IMPERIA,2078,43.878,8.019,,ITA,27/02/2023,250,006
LAMPEDUSA,2079,35.500,12.604,,ITA,28/09/2023,260,025
LIVORNO II,2080,43.546,10.299,,ITA,27/02/2023,250,026
PALINURO,2082,40.030,15.275,,ITA,28/09/2023,250,058
"PORTO EMPEDOCLE, SICILY",2083,37.286,13.527,,ITA,18/10/2016,260,006
PORTO TORRES,2084,40.842,8.404,,ITA,28/09/2023,240,006
SALERNO,2086,40.677,14.751,,ITA,28/09/2023,250,056
VIESTE,2087,41.888,16.177,,ITA,28/09/2023,270,022
CAGLIARI II,2089,39.210,9.114,,ITA,28/09/2023,240,012
GENOVA II,2090,44.410,8.926,,ITA,28/09/2023,250,012
NAPOLI II,2092,40.841,14.269,,ITA,18/10/2016,250,046
PALERMO II,2093,38.121,13.371,,ITA,18/10/2016,260,012
CATANIA II,2094,37.498,15.094,,ITA,28/09/2023,260,032
TARANTO II,2095,40.476,17.224,,ITA,28/09/2023,270,007
OTRANTO II,2096,40.147,18.497,,ITA,27/02/2023,270,012
ORTONA II,2097,42.356,14.415,,ITA,27/02/2023,270,028
ANCONA II,2098,43.625,13.507,,ITA,27/02/2023,270,032
TRIESTE II,2099,45.649,13.758,,ITA,27/02/2023,270,062
VENEZIA II,2100,45.418,12.427,,ITA,28/09/2023,270,046
KALIX,2101,65.697,23.096,,SWE,09/06/2023,050,205
SKAGSUDDE,2102,63.191,19.013,,SWE,09/06/2023,050,187
FORSMARK,2103,60.409,18.211,,SWE,09/06/2023,050,155
MARVIKEN,2104,58.554,16.837,,SWE,09/06/2023,050,115
VISBY,2105,57.639,18.284,,SWE,09/06/2023,050,096
OSKARSHAMN,2106,57.275,16.478,,SWE,09/06/2023,050,085
SIMRISHAMN,2107,55.558,14.358,,SWE,09/06/2023,050,074
SKANOR,2108,55.417,12.829,,SWE,09/06/2023,050,056
BARSEBACK,2109,55.756,12.903,,SWE,13/06/2023,050,064
VIKEN,2110,56.142,12.579,,SWE,09/06/2023,050,066
RINGHALS,2111,57.250,12.113,,SWE,13/06/2023,050,035
STENUNGSUND,2112,58.093,11.833,,SWE,09/06/2023,050,024
KUNGSVIK,2113,58.997,11.127,,SWE,09/06/2023,050,009
SAN ANDRES ARCHIPELAGO,2116,12.583,-81.700,,COL,07/03/2023,902,001
ALGECIRAS B,2117,36.121,-5.437,,ESP,05/03/2019,220,012
CHRISTIANSTED HARBOUR,2118,17.750,-64.705,,VIR,16/01/2024,939,015
LAMESHUR BAY,2119,18.317,-64.723,,VIR,10/01/2024,939,021
CULEBRA,2120,18.302,-65.303,,PRI,12/02/2014,938,001
AGUADILLA,2121,18.457,-67.163,,PRI,18/02/2013,938,031
MONA ISLAND,2122,18.090,-67.938,,PRI,26/01/2024,938,041
"TRIDENT PIER, PORT CANAVERAL",2123,28.415,-80.592,,USA,10/01/2024,960,015
"ARENA COVE, CALIFORNIA",2125,38.913,-123.707,,USA,26/01/2024,823,026
"SANTA BARBARA, CALIFORNIA",2126,34.408,-119.685,,USA,10/01/2024,823,048
"PORT ANGELES, WASHINGTON",2127,48.125,-123.440,,USA,16/01/2024,823,003
"KAWAIHAE,  HAWAII ISLAND",2128,20.037,-155.830,,USA,26/01/2024,760,056
"PORT ALLEN,  HANAPEPE BAY,  KAUAI ISLAND",2129,21.903,-159.592,,USA,24/01/2012,760,019
"PAGO BAY,  GUAM",2130,13.428,144.797,,GUM,26/01/2024,701,010
LANDSORT NORRA,2132,58.769,17.859,,SWE,09/06/2023,050,123
GOTEBORG-RINGON,2133,57.717,11.967,,SWE,01/11/2012,050,030
NOUMEA-NUMBO,2134,-22.242,166.416,123,NCL,30/01/2024,740,021
BONAVISTA,2135,48.651,-53.115,,CAN,16/02/2024,970,114
REGGIO CALABRIA II,2142,38.122,15.649,,ITA,27/02/2023,250,062
PORTO GARIBALDI,2144,44.678,12.249,,ITA,17/07/2023,270,037
GULEOBDO,2146,37.194,125.995,,KOR,02/09/2020,620,008
TEL AVIV - YAFO,2147,32.053,34.750,,ISR,27/04/2023,320,020
EILAT NORTH,2148,29.545,34.952,,ISR,09/04/2014,480,015
EILAT SOUTH,2149,29.502,34.918,,ISR,18/11/2020,480,021
"VIRAC, CATANDUANES",2150,13.583,124.233,,PHL,13/06/2023,660,022
"PULUPANDAN, NEGROS OCCIDENTAL",2151,10.517,122.800,,PHL,13/06/2023,660,005
PAGADIAN CITY,2152,7.817,123.433,,PHL,13/06/2023,660,125
"MAKAR, GENERAL SANTOS CITY",2153,6.100,125.150,,PHL,13/06/2023,660,128
"MACABALAN PORT, CAGAYAN DE ORO",2154,8.500,124.667,,PHL,13/06/2023,660,145
"BALINTANG, QUEZON, PALAWAN",2155,9.350,118.133,,PHL,13/06/2023,660,106
"MATI, DAVAO ORIENTAL",2156,6.950,126.217,,PHL,13/06/2023,660,116
"BALANACAN, MARINDUQUE",2157,13.533,121.867,,PHL,13/06/2023,660,008
"TANDAG, SURIGAO DEL SUR",2158,9.083,126.200,,PHL,13/06/2023,660,148
IRAKLION II,2165,35.348,25.153,,GRC,20/02/2024,290,102
RHODOS II,2167,36.442,28.236,,GRC,20/02/2024,290,112
LAJES DAS FLORES,2171,39.378,-31.169,,PRT,26/03/2019,360,036
CATICLAN MALAY AKLAN,2172,11.950,121.933,,PHL,13/06/2023,660,004
CURRIMAO ILOCOS NORTE,2173,17.983,120.483,,PHL,13/06/2023,660,007
MAMBAJAO CAMGUIN,2174,9.250,124.733,,PHL,13/06/2023,660,150
ZAMBOANGA CITY,2175,6.917,122.067,,PHL,13/06/2023,660,133
SUBIC ZAMBALES,2176,14.767,120.250,,PHL,14/10/2022,660,009
MARIN,2181,42.406,-8.691,,ESP,11/07/2023,200,038
TARRAGONA,2182,41.079,1.213,,ESP,11/07/2023,220,062
MOMBASA II,2183,-4.067,39.650,8,KEN,29/01/2020,470,002
HANIMADHOO B,2184,6.767,73.173,,MDV,07/03/2023,454,031
MUSCAT B,2185,23.628,58.565,,OMN,29/01/2020,487,022
TALARA B,2186,-4.582,-81.282,,PER,07/03/2023,848,015
MATARANI B,2188,-17.002,-72.108,,PER,29/01/2020,848,055
QUEPOS B,2189,9.425,-84.172,167,CRI,29/01/2020,836,021
DIEGO GARCIA D,2190,-7.290,72.393,26,IOT,29/01/2020,453,005
LIMON B,2191,9.988,-83.020,,CRI,07/03/2023,906,001
FRENCH FRIGATE SHOALS B,2192,23.868,-166.288,107,USA,29/01/2020,760,017
PADANG B,2193,-0.997,100.375,45,IDN,29/01/2020,560,033
COLOMBO C,2194,6.935,79.858,33,LKA,07/03/2023,520,004
SABANG,2195,5.888,95.317,347,IDN,29/01/2020,560,010
CHITTAGONG A,2196,22.247,91.825,36,BGD,29/01/2020,510,026
PRIGI,2197,-8.280,111.730,,IDN,29/01/2020,560,132
LAMU B,2198,-2.272,40.903,,KEN,29/01/2020,470,014
CILACAP B,2199,-7.752,109.017,291,IDN,29/01/2020,560,123
BENOA B,2200,-8.747,115.212,49,IDN,29/01/2020,560,136
CENTURI,2207,42.966,9.350,,FRA,30/01/2024,232,003
SOLENZARA,2208,41.857,9.404,,FRA,30/01/2024,232,004
"ESPERANZA, VIEQUES",2209,18.093,-65.472,,PRI,26/01/2024,938,004
GARIBALDI II,2214,45.555,-123.918,,USA,10/01/2024,823,017
BAY WAVELAND YACHT CLUB II,2215,30.326,-89.326,,USA,10/01/2024,940,038
RANGIROA,2216,-14.946,-147.706,355,PYF,10/11/2020,808,002
TUBUAI,2217,-23.342,-149.476,356,PYF,10/11/2020,808,004
AKKO,2218,32.919,35.070,,ISR,11/01/2022,320,009
ASHDOD II,2219,31.831,34.641,,ISR,23/07/2019,320,033
ASHKLON,2220,31.682,34.557,,ISR,27/04/2023,320,035
HAIFA II,2221,32.829,34.991,,ISR,23/07/2019,320,010
CHABAHAR II,2228,25.296,60.603,337,IRN,30/11/2017,489,052
PANWA CAPE,2230,7.801,98.406,,THA,02/07/2015,545,002
PORT FERREOL,2233,43.359,6.718,,FRA,30/01/2024,230,063
FOS SUR MER,2234,43.405,4.893,,FRA,30/01/2024,230,045
ILE D'AIX,2236,46.007,-1.174,,FRA,30/01/2024,190,123
HIENGHENE,2237,-20.692,164.943,,NCL,19/10/2022,740,010
MARE,2239,-21.548,167.877,,NCL,20/10/2022,740,022
VAIRAO,2242,-17.806,-149.295,,PYF,20/10/2022,780,012
ILET LA MERE,2243,4.894,-52.190,,GUF,07/08/2019,876,003
LEAVA,2244,-14.296,-178.160,353,WLF,10/11/2020,743,001
SAINT PIERRE ET MIQUELON,2246,46.779,-56.168,,SPM,30/01/2024,970,115
BUSAN NEW PORT,2250,35.078,128.787,,KOR,17/07/2023,620,047
DONGHAE PORT,2251,37.495,129.144,,KOR,17/07/2023,620,062
GANGHWA BRIDGE,2252,37.732,126.522,,KOR,12/06/2023,620,009
GWANGYANG,2253,34.904,127.755,,KOR,12/06/2023,620,044
INCHEONSONGDO,2255,37.338,126.586,,KOR,12/06/2023,620,010
TAEAN,2258,36.913,126.239,,KOR,12/06/2023,620,016
YEONGHEUNGDO,2259,37.239,126.429,,KOR,12/06/2023,620,007
YEONGJONG BRIDGE,2260,37.546,126.584,,KOR,12/06/2023,620,006
IQUIQUE II,2261,-20.204,-70.148,,CHL,07/05/2024,850,007
CORRAL II,2262,-39.878,-73.423,,CHL,07/05/2024,850,048
PUNTA ARENAS II,2263,-53.124,-70.860,,CHL,07/05/2024,850,062
ANCUD,2264,-41.867,-73.832,,CHL,07/05/2024,850,053
MELINKA,2265,-43.898,-73.748,,CHL,07/05/2024,850,055
MOULMEIN II,2266,16.465,97.622,141,MMR,07/03/2023,530,022
QUI NHON II,2267,13.775,109.255,75,VNM,29/01/2020,605,042
VUNG TAU II,2268,10.340,107.072,,VNM,29/01/2020,605,022
"PORVOO, EMASALO",2269,60.206,25.625,,FIN,05/03/2024,060,353
MAUSUND,2271,63.869,8.665,,NOR,18/01/2024,040,138
"PRICKLEY BAY, GRENADA",2272,12.005,-61.765,,GRD,29/01/2020,893,001
"LANAI ISLAND, KAUMALAPAU",2273,20.780,-156.900,,USA,28/02/2018,760,043
SAUMLAKI,2274,-7.982,131.290,,IDN,29/01/2020,560,138
SITTWE (AKYAB),2275,20.140,92.903,37,MMR,07/03/2023,530,003
HERNE BAY,2276,51.382,1.116,,GBR,08/03/2016,170,102
DEAL,2277,51.224,1.409,,GBR,08/03/2016,170,108
SANDOWN PIER,2278,50.651,-1.153,,GBR,08/03/2016,170,134
SWANAGE PIER,2279,50.609,-1.949,,GBR,08/03/2016,170,138
ARUN PLATFORM,2280,50.770,-0.492,,GBR,08/03/2016,170,132
LYMINGTON,2281,50.740,-1.507,,GBR,28/09/2016,170,136
WEST BAY HARBOUR,2282,50.709,-2.764,,GBR,28/09/2016,170,152
TEIGNMOUTH PIER,2283,50.544,-3.492,,GBR,08/03/2016,170,154
PORT ISAAC,2284,50.594,-4.834,,GBR,08/03/2016,170,162
SEVERN BRIDGE,2285,51.570,-2.700,,GBR,08/03/2016,170,172
MARIEL BOCA,2286,23.021,-82.756,,CUB,20/09/2023,930,023
SANTIAGO DE CUBA,2287,20.021,-75.837,,CUB,20/09/2023,930,085
NUEVITAS PUNTA PRACTICO,2288,21.591,-77.110,,CUB,20/09/2023,930,035
CAYO LOCO,2289,22.151,-80.455,,CUB,20/09/2023,930,067
PUERTO PADRE,2290,21.202,-76.600,,CUB,27/09/2023,930,032
"FORT POINT, NEWCASTLE ISLAND",2291,43.072,-70.712,,USA,05/02/2020,960,178
OCEAN CITY INLET,2292,38.328,-75.092,,USA,10/01/2024,960,086
WACHAPREAGUE,2293,37.607,-75.687,,USA,10/01/2024,960,092
"CAPE HATTERAS, NORTH CAROLINA",2294,35.223,-75.635,,USA,26/04/2016,960,059
"BEAUFORT, NORTH CAROLINA",2295,34.720,-76.670,,USA,10/01/2024,960,061
"SHELL BEACH, LOUISIANA",2296,29.868,-89.673,,USA,10/01/2024,940,030
"USCG FREEPORT, TEXAS",2297,28.943,-95.302,,USA,02/02/2021,940,012
LA PUSH,2298,47.913,-124.637,,USA,16/01/2024,823,002
PORT ALEXANDER,2299,56.247,-134.647,,USA,10/01/2024,821,033
"ELFIN COVE, PORT ALTHORP",2300,58.195,-136.347,,USA,10/01/2024,821,022
"ALITAK, LAZY BAY",2301,56.898,-154.247,,USA,10/01/2024,821,010
"KING COVE, DEER PASSAGE",2302,55.062,-162.327,,USA,16/01/2024,821,005
"ATKA, NAZAN BAY",2303,52.232,-174.173,,USA,10/01/2024,820,012
"VILLAGE COVE, ST. PAUL ISLAND",2304,57.125,-170.285,,USA,16/01/2024,821,007
LANGOSTEIRA,2308,43.347,-8.530,,ESP,11/07/2023,200,033
BRUNSWICK HEADS,2310,-28.537,153.552,,AUS,21/02/2024,680,082
COFFS HARBOUR III,2311,-30.303,153.146,,AUS,21/02/2024,680,115
JERVIS BAY II,2312,-35.122,150.708,,AUS,21/02/2024,680,164
PORT MACQUARIE,2313,-31.427,152.911,,AUS,21/02/2024,680,125
TWEED HEADS,2314,-28.169,153.550,,AUS,28/09/2016,680,085
ULLADULLA HARBOUR,2315,-35.358,150.477,,AUS,09/11/2021,680,165
PORT STEPHENS (TOMAREE),2316,-32.715,152.182,,AUS,28/09/2016,680,128
TWEED ENTRANCE SOUTH,2319,-28.171,153.551,,AUS,21/02/2024,680,086
SHOAL BAY,2320,-32.720,152.176,,AUS,21/02/2024,680,129
"FORT POINT,  NEW HAMPSHIRE",2321,43.072,-70.710,,USA,22/08/2018,960,179
"KINGS POINT, NEW YORK",2322,40.810,-73.765,,USA,10/01/2024,960,140
"TOLCHESTER BEACH, MARYLAND",2323,39.213,-76.245,,USA,10/01/2024,960,093
"LEWISETTA, VIRGINIA",2324,37.995,-76.465,,USA,10/01/2024,960,075
"OREGON INLET MARINA, NORTH CAROLINA",2325,35.795,-75.548,,USA,10/01/2024,960,066
"MAYPORT (BAR PILOTS DOCK), FLORIDA",2326,30.398,-81.428,,USA,10/01/2024,960,010
"MOBILE STATE DOCKS, ALABAMA",2327,30.705,-88.040,,USA,10/01/2024,940,039
"NEW CANAL STATION, LOUISIANA",2328,30.027,-90.113,,USA,10/01/2024,940,028
"REDWOOD CITY, CALIFORNIA",2329,37.507,-122.212,,USA,10/01/2024,823,035
"PORT CHICAGO, CALIFORNIA",2330,38.055,-122.040,,USA,10/01/2024,823,033
ONSALA,2331,57.392,11.919,,SWE,09/06/2023,050,034
MIMIZAN,2335,44.211,-1.295,,FRA,30/01/2024,190,138
PORT LA NOUVELLE,2336,43.015,3.064,,FRA,30/01/2024,230,010
"PASAIA HARBOUR, SAN SEBASTIAN",2338,43.322,-1.932,,ESP,18/08/2020,200,002
NUEVITAS BUFADERO,2339,21.560,-77.237,,CUB,27/09/2023,930,036
PALMYRA ISLAND B,2341,5.883,-162.088,,UMI,07/03/2023,770,002
PUNTA CANA B,2342,18.505,-68.375,,DOM,07/03/2023,936,005
PUERTO PLATA B,2343,19.798,-70.702,,DOM,07/03/2023,936,020
ROSEAU,2344,15.313,-61.390,,DMA,07/03/2023,913,001
BULLEN BAY,2346,12.187,-69.020,,CUW,07/03/2023,898,001
BARBERS POINT,2347,21.320,-158.120,,USA,07/03/2023,760,035
LA LIBERTAD III,2348,-2.200,-80.917,172,ECU,07/03/2023,845,014
SANTA CRUZ DEL SUR,2351,20.700,-76.023,,CUB,27/09/2023,930,066
BEDFORD INSTITUTE,2352,44.683,-63.617,,CAN,16/02/2024,970,012
VIEUX QUEBEC,2353,46.811,-71.202,,CAN,16/02/2024,970,072
ST LAWRENCE,2354,46.917,-55.390,,CAN,16/02/2024,970,113
SUVA-B,2356,-18.133,178.428,,FJI,05/02/2024,742,014
SYDNEY PORT JACKSON,2358,-33.826,151.259,,AUS,21/02/2024,680,138
ARKO,2359,58.484,16.961,,SWE,09/06/2023,050,112
UDDEVALLA,2360,58.348,11.895,,SWE,09/06/2023,050,022
HABANA,2363,23.134,-82.338,,CUB,27/09/2023,930,022
DIELETTE,2364,49.552,-1.861,,FRA,30/01/2024,xxx,xxx
SAINT QUAY PORTRIEUX,2365,48.648,-2.818,,FRA,01/11/2022,xxx,xxx
AUDIERNE,2366,48.022,-4.538,,FRA,01/11/2022,xxx,xxx
L'ILE ROUSSE,2367,42.640,8.935,,FRA,30/01/2024,xxx,xxx
MAKEMO,2368,-16.627,-143.569,354,PYF,30/01/2024,xxx,xxx
HOWTH,2396,53.392,-6.068,,IRL,01/11/2022,xxx,xxx
UNION HALL,2397,51.559,-9.133,,IRL,01/11/2022,xxx,xxx
SANDNES,2398,58.868,5.747,,NOR,18/01/2024,xxx,xxx
BRURAVIK,2400,60.492,6.894,,NOR,14/02/2024,xxx,xxx
SIREVAG,2401,58.505,5.792,,NOR,14/02/2024,xxx,xxx
LEIRVIK,2402,59.766,5.504,,NOR,14/02/2024,xxx,xxx
